{"body":{"punto_vendita_list":[{"id":1,"codice_nazione":"IT","indirizzo":"Via Cassa Km 65+500","comune":"Vetralla","cap":"01019","longitudine":"12.077733","latitudine":"42.308514","servizi_mobile_payment":true,"fatturazione_elettronica":false},{"id":2,"codice_nazione":"IT","indirizzo":"Ss 415 Km 38+375","comune":"Madignano","cap":"26020","longitudine":"9.714025","latitudine":"45.348713","servizi_mobile_payment":true,"fatturazione_elettronica":true},{"id":3,"codice_nazione":"IT","indirizzo":"Borgata Lerpa.","comune":"Sappada","cap":"33012","longitudine":"12.67091","latitudine":"46.56483","servizi_mobile_payment":false,"fatturazione_elettronica":false},{"id":4,"codice_nazione":"IT","indirizzo":"Ss 1 Loc Banditella","comune":"Grosseto","cap":"58010","longitudine":"11.141667","latitudine":"42.67491","servizi_mobile_payment":true,"fatturazione_elettronica":true},{"id":6,"codice_nazione":"IT","indirizzo":"Via Serristori, 34","comune":"Castiglion Fiorentino","cap":"52043","longitudine":"11.907934","latitudine":"43.3436","servizi_mobile_payment":true,"fatturazione_elettronica":true},{"id":7,"codice_nazione":"IT","indirizzo":"Via Venere","comune":"Palermo","cap":"90149","longitudine":"13.324815","latitudine":"38.189045","servizi_mobile_payment":false,"fatturazione_elettronica":false},{"id":8,"codice_nazione":"IT","indirizzo":"Via Ettore Fieramosca Sn","comune":"Ragusa","cap":"97100","longitudine":"14.700404","latitudine":"36.91513","servizi_mobile_payment":false,"fatturazione_elettronica":false},{"id":9,"codice_nazione":"IT","indirizzo":"Trada Legnaghese","comune":"Minerbe","cap":"37046","longitudine":"11.334485","latitudine":"45.23868","servizi_mobile_payment":true,"fatturazione_elettronica":true},{"id":10,"codice_nazione":"IT","indirizzo":"Piazza Italia","comune":"Cassine","cap":"15016","longitudine":"8.528476","latitudine":"44.752655","servizi_mobile_payment":true,"fatturazione_elettronica":true},{"id":11,"codice_nazione":"IT","indirizzo":"Sr Comunale","comune":"Osio Sopra","cap":"24040","longitudine":"9.588043","latitudine":"45.630802","servizi_mobile_payment":true,"fatturazione_elettronica":true},{"id":12,"codice_nazione":"IT","indirizzo":"Viale Leopardi 1","comune":"Vigevano","cap":"27029","longitudine":"8.875356","latitudine":"45.3258","servizi_mobile_payment":true,"fatturazione_elettronica":true},{"id":13,"codice_nazione":"IT","indirizzo":"Via Brunis Sp 25 Loc. Palse","comune":"Porcia","cap":"33080","longitudine":"12.59568","latitudine":"45.94238","servizi_mobile_payment":true,"fatturazione_elettronica":false},{"id":14,"codice_nazione":"IT","indirizzo":"Via Cotonificio, 241","comune":"Udine","cap":"33100","longitudine":"13.214513","latitudine":"46.09061","servizi_mobile_payment":true,"fatturazione_elettronica":false},{"id":16,"codice_nazione":"IT","indirizzo":"Toscana San Ruffillo 0217","comune":"Bologna","cap":"40141","longitudine":"11.360949","latitudine":"44.449993","servizi_mobile_payment":true,"fatturazione_elettronica":true},{"id":17,"codice_nazione":"IT","indirizzo":"Ss 86 Km 54+338","comune":"Agnone","cap":"86081","longitudine":"14.373506","latitudine":"41.811367","servizi_mobile_payment":true,"fatturazione_elettronica":false},{"id":18,"codice_nazione":"IT","indirizzo":"Via Roma, 36","comune":"Cinto Caomaggiore","cap":"30020","longitudine":"12.782197","latitudine":"45.82827","servizi_mobile_payment":true,"fatturazione_elettronica":true},{"id":19,"codice_nazione":"IT","indirizzo":"Gattamelata","comune":"Padova","cap":"35100","longitudine":"11.888653","latitudine":"45.400826","servizi_mobile_payment":true,"fatturazione_elettronica":true},{"id":20,"codice_nazione":"IT","indirizzo":"Castelli Romani 34","comune":"Pomezia","cap":"00040","longitudine":"12.50756","latitudine":"41.681793","servizi_mobile_payment":true,"fatturazione_elettronica":true},{"id":21,"codice_nazione":"IT","indirizzo":"Ss 342 Km 52+782","comune":"Lipomo","cap":"22030","longitudine":"9.11998","latitudine":"45.7969","servizi_mobile_payment":true,"fatturazione_elettronica":true},{"id":22,"codice_nazione":"IT","indirizzo":"S.s. 19 Delle Calabrie","comune":"Castrovillari","cap":"87012","longitudine":"16.235632","latitudine":"39.81128","servizi_mobile_payment":false,"fatturazione_elettronica":false},{"id":23,"codice_nazione":"IT","indirizzo":"Appia S S 7","comune":"Brindisi","cap":"72100","longitudine":"17.924608","latitudine":"40.62896","servizi_mobile_payment":true,"fatturazione_elettronica":true},{"id":24,"codice_nazione":"IT","indirizzo":"L Cadorna","comune":"Legnano","cap":"20025","longitudine":"8.939764","latitudine":"45.59857","servizi_mobile_payment":true,"fatturazione_elettronica":true},{"id":25,"codice_nazione":"IT","indirizzo":"Corso Europa 196","comune":"Rho","cap":"20017","longitudine":"9.043521","latitudine":"45.531807","servizi_mobile_payment":true,"fatturazione_elettronica":true},{"id":26,"codice_nazione":"IT","indirizzo":"Strada Francesca","comune":"Spirano","cap":"24050","longitudine":"9.679433","latitudine":"45.5929","servizi_mobile_payment":true,"fatturazione_elettronica":true},{"id":27,"codice_nazione":"IT","indirizzo":"Loc Ponte Travetti","comune":"Bagnolo San Vito","cap":"46031","longitudine":"10.869982","latitudine":"45.08839","servizi_mobile_payment":true,"fatturazione_elettronica":true},{"id":28,"codice_nazione":"IT","indirizzo":"S.lucia Ss 113 Km189","comune":"Cefal\u00f9","cap":"90015","longitudine":"13.999708","latitudine":"38.030605","servizi_mobile_payment":true,"fatturazione_elettronica":true},{"id":29,"codice_nazione":"IT","indirizzo":"Str Prov N 2","comune":"Olgiate Olona","cap":"21057","longitudine":"8.858613","latitudine":"45.631744","servizi_mobile_payment":true,"fatturazione_elettronica":true},{"id":30,"codice_nazione":"IT","indirizzo":"S.s. 235 Km. 75+300","comune":"Orzinuovi","cap":"25034","longitudine":"9.935216","latitudine":"45.41603","servizi_mobile_payment":true,"fatturazione_elettronica":true},{"id":31,"codice_nazione":"IT","indirizzo":"Corso Di Francia 0080","comune":"Roma","cap":"00191","longitudine":"12.471528","latitudine":"41.939888","servizi_mobile_payment":true,"fatturazione_elettronica":true},{"id":32,"codice_nazione":"IT","indirizzo":"Ss 10 Km. 117+55","comune":"Tortona","cap":"15057","longitudine":"8.879933","latitudine":"44.90848","servizi_mobile_payment":true,"fatturazione_elettronica":true},{"id":34,"codice_nazione":"IT","indirizzo":"Ss 1 Km 72*730","comune":"Civitavecchia","cap":"00053","longitudine":"11.788611","latitudine":"42.09904","servizi_mobile_payment":true,"fatturazione_elettronica":true},{"id":35,"codice_nazione":"IT","indirizzo":"Via Pia","comune":"Sassuolo","cap":"41049","longitudine":"10.780156","latitudine":"44.54544","servizi_mobile_payment":true,"fatturazione_elettronica":true},{"id":36,"codice_nazione":"IT","indirizzo":"S.s.7 Km.641+651","comune":"Statte","cap":"74010","longitudine":"17.1682","latitudine":"40.53023","servizi_mobile_payment":true,"fatturazione_elettronica":true},{"id":37,"codice_nazione":"IT","indirizzo":"Pz  I  Maggio 28","comune":"Asti","cap":"14100","longitudine":"8.214512","latitudine":"44.903103","servizi_mobile_payment":true,"fatturazione_elettronica":true},{"id":38,"codice_nazione":"IT","indirizzo":"Via Carlo Marx Ang. Via Parigi","comune":"Palma Montechiaro","cap":"92026","longitudine":"13.753648","latitudine":"37.192547","servizi_mobile_payment":true,"fatturazione_elettronica":true},{"id":39,"codice_nazione":"IT","indirizzo":"Localita\u0027 S. Filippo","comune":"Messina","cap":"98126","longitudine":"15.522858","latitudine":"38.15688","servizi_mobile_payment":true,"fatturazione_elettronica":true},{"id":40,"codice_nazione":"IT","indirizzo":"S.p. Marina Di Rg S.croce Camerina","comune":"Santa Croce Camerina","cap":"97017","longitudine":"14.525253","latitudine":"36.828384","servizi_mobile_payment":false,"fatturazione_elettronica":false},{"id":41,"codice_nazione":"IT","indirizzo":"Loc. Bagnaia Ovest Km 162 + 40","comune":"Anghiari","cap":"52031","longitudine":"12.052143","latitudine":"43.540104","servizi_mobile_payment":true,"fatturazione_elettronica":false},{"id":42,"codice_nazione":"IT","indirizzo":"Loc Cascina Gobba","comune":"Milano","cap":"20132","longitudine":"9.263077","latitudine":"45.513695","servizi_mobile_payment":true,"fatturazione_elettronica":true},{"id":43,"codice_nazione":"IT","indirizzo":"Cortine","comune":"Ceresara","cap":"46040","longitudine":"10.57413","latitudine":"45.26113","servizi_mobile_payment":true,"fatturazione_elettronica":true},{"id":44,"codice_nazione":"IT","indirizzo":"Viale Palmanova,129","comune":"Udine","cap":"33100","longitudine":"13.24778","latitudine":"46.05065","servizi_mobile_payment":true,"fatturazione_elettronica":true},{"id":45,"codice_nazione":"IT","indirizzo":"V.le Porto Torres","comune":"Sassari","cap":"07100","longitudine":"8.548626","latitudine":"40.73299","servizi_mobile_payment":true,"fatturazione_elettronica":true},{"id":47,"codice_nazione":"IT","indirizzo":"Trieste 0047","comune":"Staranzano","cap":"34079","longitudine":"13.50906","latitudine":"45.80556","servizi_mobile_payment":true,"fatturazione_elettronica":true},{"id":48,"codice_nazione":"IT","indirizzo":"Via Bettolino","comune":"Verolanuova","cap":"25028","longitudine":"10.101251","latitudine":"45.318233","servizi_mobile_payment":true,"fatturazione_elettronica":true},{"id":49,"codice_nazione":"IT","indirizzo":"Viale Leonardo Da Vinci, 396","comune":"Palermo","cap":"90135","longitudine":"13.31151","latitudine":"38.12663","servizi_mobile_payment":false,"fatturazione_elettronica":false},{"id":51,"codice_nazione":"IT","indirizzo":"Japigia","comune":"Bari","cap":"70126","longitudine":"16.89762","latitudine":"41.11295","servizi_mobile_payment":true,"fatturazione_elettronica":true},{"id":53,"codice_nazione":"IT","indirizzo":"Strada Panoramica","comune":"Monte Sant\u0027angelo","cap":"71037","longitudine":"15.966249","latitudine":"41.70478","servizi_mobile_payment":true,"fatturazione_elettronica":true},{"id":54,"codice_nazione":"IT","indirizzo":"Via Cona 134","comune":"Teramo","cap":"64100","longitudine":"13.681426","latitudine":"42.652386","servizi_mobile_payment":true,"fatturazione_elettronica":true},{"id":55,"codice_nazione":"IT","indirizzo":"Via Minonna, 67\/a","comune":"Jesi","cap":"60035","longitudine":"13.268976","latitudine":"43.501163","servizi_mobile_payment":true,"fatturazione_elettronica":true},{"id":56,"codice_nazione":"IT","indirizzo":"Via Ahrner - Lutago 13\/a 33","comune":"Valle Aurina","cap":"39030","longitudine":"11.92428","latitudine":"46.94365","servizi_mobile_payment":true,"fatturazione_elettronica":true},{"id":57,"codice_nazione":"IT","indirizzo":"Reale 0125","comune":"Alfonsine","cap":"48011","longitudine":"12.035593","latitudine":"44.51057","servizi_mobile_payment":true,"fatturazione_elettronica":true},{"id":58,"codice_nazione":"IT","indirizzo":"Via D.liberazione 26","comune":"San Benedetto Del Tronto","cap":"63039","longitudine":"13.880756","latitudine":"42.939404","servizi_mobile_payment":true,"fatturazione_elettronica":true},{"id":59,"codice_nazione":"IT","indirizzo":"Via Colle Florindo S.p","comune":"Pianella","cap":"65019","longitudine":"14.106596","latitudine":"42.426117","servizi_mobile_payment":true,"fatturazione_elettronica":false},{"id":60,"codice_nazione":"IT","indirizzo":"S.s. 7 Appia Km 178 + 920","comune":"Carinola","cap":"81030","longitudine":"14.006195","latitudine":"41.203407","servizi_mobile_payment":true,"fatturazione_elettronica":true},{"id":61,"codice_nazione":"IT","indirizzo":"S.s. 7 Quater Km. 48+235","comune":"Giugliano In Campania","cap":"80014","longitudine":"14.07767","latitudine":"40.8951","servizi_mobile_payment":true,"fatturazione_elettronica":true},{"id":64,"codice_nazione":"IT","indirizzo":"Via S. Del Tonno","comune":"Taranto","cap":"74100","longitudine":"17.261478","latitudine":"40.444714","servizi_mobile_payment":true,"fatturazione_elettronica":false},{"id":65,"codice_nazione":"IT","indirizzo":"Via Imolese 35","comune":"Firenzuola","cap":"50033","longitudine":"11.38368","latitudine":"44.11858","servizi_mobile_payment":false,"fatturazione_elettronica":false},{"id":66,"codice_nazione":"IT","indirizzo":"Corso Casale 292a","comune":"Torino","cap":"10132","longitudine":"7.731856","latitudine":"45.07688","servizi_mobile_payment":true,"fatturazione_elettronica":true},{"id":67,"codice_nazione":"IT","indirizzo":"Cso Limone Piemonte 1","comune":"Ventimiglia","cap":"18039","longitudine":"7.600282","latitudine":"43.799545","servizi_mobile_payment":true,"fatturazione_elettronica":true},{"id":68,"codice_nazione":"IT","indirizzo":"Torino","comune":"Varazze","cap":"17019","longitudine":"8.568684","latitudine":"44.3569","servizi_mobile_payment":true,"fatturazione_elettronica":true},{"id":69,"codice_nazione":"IT","indirizzo":"Via Papa Giovanni Xxiii 85 85","comune":"Oggiono","cap":"23848","longitudine":"9.343919","latitudine":"45.785557","servizi_mobile_payment":true,"fatturazione_elettronica":true},{"id":70,"codice_nazione":"IT","indirizzo":"Via Ernesto Basile","comune":"Palermo","cap":"90129","longitudine":"13.346596","latitudine":"38.099884","servizi_mobile_payment":false,"fatturazione_elettronica":false},{"id":71,"codice_nazione":"IT","indirizzo":"Sp 12 C.da Torre","comune":"Barrafranca","cap":"94012","longitudine":"14.210505","latitudine":"37.378803","servizi_mobile_payment":false,"fatturazione_elettronica":false},{"id":72,"codice_nazione":"IT","indirizzo":"Via Leonardo Da Vinci 66 \\ D","comune":"Palermo","cap":"90100","longitudine":"13.333997","latitudine":"38.12981","servizi_mobile_payment":false,"fatturazione_elettronica":false},{"id":73,"codice_nazione":"IT","indirizzo":"Zona Selvaggio  Sn","comune":"Ragusa","cap":"97100","longitudine":"14.70731","latitudine":"36.90456","servizi_mobile_payment":false,"fatturazione_elettronica":false},{"id":74,"codice_nazione":"IT","indirizzo":"Corso Romania","comune":"Torino","cap":"10156","longitudine":"7.713646","latitudine":"45.11928","servizi_mobile_payment":false,"fatturazione_elettronica":false},{"id":76,"codice_nazione":"IT","indirizzo":"Via Provinciale Busca 14","comune":"Dronero","cap":"12025","longitudine":"7.3721747","latitudine":"44.468937","servizi_mobile_payment":true,"fatturazione_elettronica":true},{"id":77,"codice_nazione":"IT","indirizzo":"Via Belluno, 47","comune":"Lentiai","cap":"32020","longitudine":"12.005564","latitudine":"46.040787","servizi_mobile_payment":true,"fatturazione_elettronica":true},{"id":78,"codice_nazione":"IT","indirizzo":"Strada Del Friuli 0005","comune":"Trieste","cap":"34122","longitudine":"13.76459","latitudine":"45.668903","servizi_mobile_payment":true,"fatturazione_elettronica":true},{"id":79,"codice_nazione":"IT","indirizzo":"P.zza Adelmo Romano","comune":"Larino","cap":"86035","longitudine":"14.917829","latitudine":"41.80006","servizi_mobile_payment":true,"fatturazione_elettronica":true},{"id":80,"codice_nazione":"IT","indirizzo":"Via S. Giovanni Bosco","comune":"Nuoro","cap":"08100","longitudine":"9.308133","latitudine":"40.32336","servizi_mobile_payment":true,"fatturazione_elettronica":true},{"id":81,"codice_nazione":"IT","indirizzo":"Ss 650 Km.18+146-petozzo","comune":"Bucchianico","cap":"66011","longitudine":"14.158983","latitudine":"42.295727","servizi_mobile_payment":true,"fatturazione_elettronica":true},{"id":85,"codice_nazione":"IT","indirizzo":"Via Isonzo","comune":"Latisana","cap":"33053","longitudine":"13.002555","latitudine":"45.774075","servizi_mobile_payment":true,"fatturazione_elettronica":true},{"id":87,"codice_nazione":"IT","indirizzo":"S.s. 495 Km 57+480","comune":"Ariano Nel Polesine","cap":"45012","longitudine":"12.131654","latitudine":"44.94977","servizi_mobile_payment":true,"fatturazione_elettronica":true},{"id":89,"codice_nazione":"IT","indirizzo":"Via Trieste","comune":"Nuoro","cap":"08100","longitudine":"9.323698","latitudine":"40.321648","servizi_mobile_payment":true,"fatturazione_elettronica":true},{"id":90,"codice_nazione":"IT","indirizzo":"Via Ripamonti, 270 0270","comune":"Milano","cap":"20153","longitudine":"9.20281","latitudine":"45.42659","servizi_mobile_payment":true,"fatturazione_elettronica":true},{"id":91,"codice_nazione":"IT","indirizzo":"Loc. Villa Elce","comune":"Lanciano","cap":"66034","longitudine":"14.395671","latitudine":"42.187035","servizi_mobile_payment":true,"fatturazione_elettronica":false},{"id":92,"codice_nazione":"IT","indirizzo":"Via Aterno","comune":"San Giovanni Teatino","cap":"66020","longitudine":"14.165339","latitudine":"42.422016","servizi_mobile_payment":true,"fatturazione_elettronica":true},{"id":93,"codice_nazione":"IT","indirizzo":"Nuova Valassina","comune":"Desio","cap":"20033","longitudine":"9.2235365","latitudine":"45.616547","servizi_mobile_payment":true,"fatturazione_elettronica":true},{"id":94,"codice_nazione":"IT","indirizzo":"Via Martiri Liberta\u0027","comune":"Fermignano","cap":"61033","longitudine":"12.644016","latitudine":"43.67945","servizi_mobile_payment":true,"fatturazione_elettronica":true},{"id":95,"codice_nazione":"IT","indirizzo":"S.s.65 Km.94.340","comune":"Pianoro","cap":"40065","longitudine":"11.34301","latitudine":"44.396366","servizi_mobile_payment":true,"fatturazione_elettronica":true},{"id":96,"codice_nazione":"IT","indirizzo":"Ca\u0027 Bianca Ss 39","comune":"Sondrio","cap":"23100","longitudine":"9.89615","latitudine":"46.1705","servizi_mobile_payment":true,"fatturazione_elettronica":true},{"id":97,"codice_nazione":"IT","indirizzo":"Via Altinia Sp N 40","comune":"Venezia Loc. Dese","cap":"30173","longitudine":"12.301324","latitudine":"45.53858","servizi_mobile_payment":true,"fatturazione_elettronica":true},{"id":98,"codice_nazione":"IT","indirizzo":"Via Carlo Felice 45 45","comune":"Sanluri","cap":"09055","longitudine":"8.90391","latitudine":"39.556435","servizi_mobile_payment":true,"fatturazione_elettronica":true},{"id":99,"codice_nazione":"IT","indirizzo":"Str.prov.per Sorgono","comune":"Ghilarza","cap":"09030","longitudine":"8.842796","latitudine":"40.125473","servizi_mobile_payment":true,"fatturazione_elettronica":true},{"id":100,"codice_nazione":"IT","indirizzo":"Largo Palermo 69","comune":"Torino","cap":"10152","longitudine":"7.6924896","latitudine":"45.084747","servizi_mobile_payment":true,"fatturazione_elettronica":true},{"id":101,"codice_nazione":"IT","indirizzo":"V. Don P. Borghi Ang.jach","comune":"Roma","cap":"00144","longitudine":"12.446476","latitudine":"41.809032","servizi_mobile_payment":true,"fatturazione_elettronica":true},{"id":102,"codice_nazione":"IT","indirizzo":"Ss 148 Pontina Km 13+300 331","comune":"Roma","cap":"00128","longitudine":"12.452751","latitudine":"41.795025","servizi_mobile_payment":true,"fatturazione_elettronica":true},{"id":103,"codice_nazione":"IT","indirizzo":"Via C. Colombo Km. 10+650","comune":"Roma","cap":"00144","longitudine":"12.46274","latitudine":"41.81713","servizi_mobile_payment":true,"fatturazione_elettronica":true},{"id":105,"codice_nazione":"IT","indirizzo":"Broseta 125","comune":"Bergamo","cap":"24100","longitudine":"9.645037","latitudine":"45.69347","servizi_mobile_payment":true,"fatturazione_elettronica":true},{"id":106,"codice_nazione":"IT","indirizzo":"Via Leuciana, 4516","comune":"Pontecorvo","cap":"03037","longitudine":"13.668548","latitudine":"41.48179","servizi_mobile_payment":false,"fatturazione_elettronica":false},{"id":107,"codice_nazione":"IT","indirizzo":"Via Rotta 12\/e","comune":"Finale Emilia","cap":"41034","longitudine":"11.2907","latitudine":"44.834","servizi_mobile_payment":false,"fatturazione_elettronica":true},{"id":108,"codice_nazione":"IT","indirizzo":"Str-st-5 Tiburtina","comune":"Manoppello","cap":"65025","longitudine":"14.059673","latitudine":"42.31106","servizi_mobile_payment":true,"fatturazione_elettronica":true},{"id":109,"codice_nazione":"IT","indirizzo":"Cuneo Ss 28","comune":"Fossano","cap":"12045","longitudine":"7.719966","latitudine":"44.5427","servizi_mobile_payment":true,"fatturazione_elettronica":true},{"id":110,"codice_nazione":"IT","indirizzo":"Del Mare Ss-84","comune":"Lanciano","cap":"66034","longitudine":"14.397088","latitudine":"42.235153","servizi_mobile_payment":true,"fatturazione_elettronica":true},{"id":112,"codice_nazione":"IT","indirizzo":"Vl Trento","comune":"Terni","cap":"05100","longitudine":"12.64945","latitudine":"42.54843","servizi_mobile_payment":true,"fatturazione_elettronica":true},{"id":113,"codice_nazione":"IT","indirizzo":"Pza .colombo\/valladolid Ostia","comune":"Roma","cap":"00122","longitudine":"12.31832","latitudine":"41.714645","servizi_mobile_payment":true,"fatturazione_elettronica":true},{"id":114,"codice_nazione":"IT","indirizzo":"Loc. Quattromiglia","comune":"Rende","cap":"87036","longitudine":"16.243723","latitudine":"39.353226","servizi_mobile_payment":true,"fatturazione_elettronica":true},{"id":115,"codice_nazione":"IT","indirizzo":"Ss.16 Km.844+105 Sn","comune":"Monopoli","cap":"70043","longitudine":"17.29144","latitudine":"40.947445","servizi_mobile_payment":true,"fatturazione_elettronica":true},{"id":116,"codice_nazione":"IT","indirizzo":"Loc Impalata V Trani","comune":"Barletta","cap":"70051","longitudine":"16.292257","latitudine":"41.317802","servizi_mobile_payment":true,"fatturazione_elettronica":true},{"id":117,"codice_nazione":"IT","indirizzo":"Amendola  147\/bis","comune":"Bari","cap":"70126","longitudine":"16.880821","latitudine":"41.11363","servizi_mobile_payment":true,"fatturazione_elettronica":true},{"id":118,"codice_nazione":"IT","indirizzo":"Brindisi","comune":"San Pietro Vernotico","cap":"72027","longitudine":"17.99368","latitudine":"40.49941","servizi_mobile_payment":true,"fatturazione_elettronica":true},{"id":119,"codice_nazione":"IT","indirizzo":"S.s. 101 Km 23+490","comune":"Galatone","cap":"73044","longitudine":"18.072046","latitudine":"40.151337","servizi_mobile_payment":true,"fatturazione_elettronica":true},{"id":120,"codice_nazione":"IT","indirizzo":"Nomentana Km 10","comune":"Roma","cap":"00137","longitudine":"12.571039","latitudine":"41.9507","servizi_mobile_payment":true,"fatturazione_elettronica":true},{"id":121,"codice_nazione":"IT","indirizzo":"Localita\u0027 Ponte Verde","comune":"Recoaro Terme","cap":"36076","longitudine":"11.240554","latitudine":"45.7053","servizi_mobile_payment":true,"fatturazione_elettronica":true},{"id":122,"codice_nazione":"IT","indirizzo":"Ss 20 Loc. Roverino","comune":"Ventimiglia","cap":"18039","longitudine":"7.5966115","latitudine":"43.802837","servizi_mobile_payment":true,"fatturazione_elettronica":true},{"id":123,"codice_nazione":"IT","indirizzo":"Ads Villabona Nord A4 Torino-trieste Snc","comune":"Venezia","cap":"30175","longitudine":"12.211022","latitudine":"45.47522","servizi_mobile_payment":true,"fatturazione_elettronica":true},{"id":124,"codice_nazione":"IT","indirizzo":"Via Delle Forze Armate, 41","comune":"Milano","cap":"20147","longitudine":"9.13531","latitudine":"45.463043","servizi_mobile_payment":false,"fatturazione_elettronica":false},{"id":125,"codice_nazione":"IT","indirizzo":"Via Marconi 209","comune":"Casavatore","cap":"80020","longitudine":"14.278475","latitudine":"40.8939","servizi_mobile_payment":false,"fatturazione_elettronica":false},{"id":127,"codice_nazione":"IT","indirizzo":"S S 7ter Km 15+810","comune":"Sava","cap":"74028","longitudine":"17.549696","latitudine":"40.40597","servizi_mobile_payment":true,"fatturazione_elettronica":true},{"id":128,"codice_nazione":"IT","indirizzo":"Fraz Villa Bagno","comune":"Reggio Nell\u0027emilia","cap":"42100","longitudine":"10.749037","latitudine":"44.657085","servizi_mobile_payment":true,"fatturazione_elettronica":true},{"id":129,"codice_nazione":"IT","indirizzo":"Via Matino, 80","comune":"Casarano","cap":"73042","longitudine":"18.158297","latitudine":"40.014107","servizi_mobile_payment":true,"fatturazione_elettronica":true},{"id":130,"codice_nazione":"IT","indirizzo":"Via Provinciale Di Mercatale 8","comune":"Vinci","cap":"50059","longitudine":"10.91792","latitudine":"43.771183","servizi_mobile_payment":true,"fatturazione_elettronica":true},{"id":132,"codice_nazione":"IT","indirizzo":"Cervese Km. 2+012","comune":"Forli\u0027","cap":"47100","longitudine":"12.08765","latitudine":"44.24055","servizi_mobile_payment":true,"fatturazione_elettronica":true},{"id":133,"codice_nazione":"IT","indirizzo":"Via Noventa 150 150","comune":"San Dona Di Piave","cap":"30027","longitudine":"12.543545","latitudine":"45.650166","servizi_mobile_payment":true,"fatturazione_elettronica":true},{"id":134,"codice_nazione":"IT","indirizzo":"Via Borzacchini","comune":"Terni","cap":"05100","longitudine":"12.633155","latitudine":"42.567398","servizi_mobile_payment":true,"fatturazione_elettronica":true},{"id":135,"codice_nazione":"IT","indirizzo":"Via Dei Girasoli 2","comune":"Ascoli Piceno","cap":"63100","longitudine":"13.621951","latitudine":"42.850662","servizi_mobile_payment":true,"fatturazione_elettronica":true},{"id":136,"codice_nazione":"IT","indirizzo":"Via Nazionale","comune":"Sant\u0027antioco","cap":"09017","longitudine":"8.459942","latitudine":"39.059727","servizi_mobile_payment":false,"fatturazione_elettronica":false},{"id":137,"codice_nazione":"IT","indirizzo":"Ss 200 Km.8+523","comune":"Sennori","cap":"07036","longitudine":"8.588731","latitudine":"40.788277","servizi_mobile_payment":true,"fatturazione_elettronica":true},{"id":138,"codice_nazione":"IT","indirizzo":"S S 16 Km 999+550","comune":"Otranto","cap":"73028","longitudine":"18.479769","latitudine":"40.148655","servizi_mobile_payment":true,"fatturazione_elettronica":true},{"id":140,"codice_nazione":"IT","indirizzo":"Fraz-fornaci Str-pro","comune":"Barga","cap":"55052","longitudine":"10.47881","latitudine":"44.046","servizi_mobile_payment":true,"fatturazione_elettronica":true},{"id":142,"codice_nazione":"IT","indirizzo":"Loc Pare Ss 13 Km 46","comune":"Conegliano","cap":"31015","longitudine":"12.273209","latitudine":"45.86778","servizi_mobile_payment":true,"fatturazione_elettronica":true},{"id":143,"codice_nazione":"IT","indirizzo":"Alfredo Paolella","comune":"Benevento","cap":"82100","longitudine":"14.794689","latitudine":"41.129944","servizi_mobile_payment":true,"fatturazione_elettronica":true},{"id":144,"codice_nazione":"IT","indirizzo":"Via A. Moro","comune":"Benevento","cap":"82100","longitudine":"14.800579","latitudine":"41.121758","servizi_mobile_payment":true,"fatturazione_elettronica":true},{"id":145,"codice_nazione":"IT","indirizzo":"V.le Romagna Ss 16 Km 248 52","comune":"Fano","cap":"61032","longitudine":"13.000206","latitudine":"43.856014","servizi_mobile_payment":false,"fatturazione_elettronica":true},{"id":146,"codice_nazione":"IT","indirizzo":"Aldini 0186","comune":"Bologna","cap":"40136","longitudine":"11.333932","latitudine":"44.488335","servizi_mobile_payment":true,"fatturazione_elettronica":true},{"id":147,"codice_nazione":"IT","indirizzo":"Via Mezzomiglio 1","comune":"Pieve A Nievole","cap":"51018","longitudine":"10.78783","latitudine":"43.878414","servizi_mobile_payment":true,"fatturazione_elettronica":true},{"id":148,"codice_nazione":"IT","indirizzo":"Via San Rocco 693 693","comune":"Calusco D\u0027adda","cap":"24033","longitudine":"9.478569","latitudine":"45.692772","servizi_mobile_payment":true,"fatturazione_elettronica":true},{"id":149,"codice_nazione":"IT","indirizzo":"S.s.423 Loc.torraccia.","comune":"Pesaro","cap":"61100","longitudine":"12.854522","latitudine":"43.903294","servizi_mobile_payment":true,"fatturazione_elettronica":true},{"id":152,"codice_nazione":"IT","indirizzo":"Porta Firenze Ss.75","comune":"Foligno","cap":"06034","longitudine":"12.697668","latitudine":"42.964397","servizi_mobile_payment":true,"fatturazione_elettronica":true},{"id":153,"codice_nazione":"IT","indirizzo":"Via Mantova Ex Ss 63 Cisa","comune":"Parma","cap":"43100","longitudine":"10.364307","latitudine":"44.81168","servizi_mobile_payment":true,"fatturazione_elettronica":true},{"id":154,"codice_nazione":"IT","indirizzo":"C.so Allamano","comune":"Rivoli","cap":"10098","longitudine":"7.5571","latitudine":"45.0578","servizi_mobile_payment":true,"fatturazione_elettronica":true},{"id":155,"codice_nazione":"IT","indirizzo":"Via Molassana 169r","comune":"Genova","cap":"16138","longitudine":"8.98472","latitudine":"44.45452","servizi_mobile_payment":true,"fatturazione_elettronica":true},{"id":156,"codice_nazione":"IT","indirizzo":"Via Volparo 49","comune":"Polverara","cap":"35020","longitudine":"11.9612","latitudine":"45.31503","servizi_mobile_payment":true,"fatturazione_elettronica":true},{"id":157,"codice_nazione":"IT","indirizzo":"Via Sassari","comune":"Porto Torres","cap":"07046","longitudine":"8.403217","latitudine":"40.83194","servizi_mobile_payment":true,"fatturazione_elettronica":true},{"id":158,"codice_nazione":"IT","indirizzo":"Marconi","comune":"Orbetello","cap":"58015","longitudine":"11.215036","latitudine":"42.44074","servizi_mobile_payment":true,"fatturazione_elettronica":true},{"id":159,"codice_nazione":"IT","indirizzo":"Ss 12 Km 337+947","comune":"Ala","cap":"38061","longitudine":"11.00591","latitudine":"45.76315","servizi_mobile_payment":true,"fatturazione_elettronica":true},{"id":160,"codice_nazione":"IT","indirizzo":"Via Iv Novembre,69","comune":"Mezzocorona","cap":"38016","longitudine":"11.123135","latitudine":"46.21211","servizi_mobile_payment":true,"fatturazione_elettronica":true},{"id":161,"codice_nazione":"IT","indirizzo":"Loc Drosi","comune":"Rizziconi","cap":"89016","longitudine":"15.96608","latitudine":"38.41868","servizi_mobile_payment":false,"fatturazione_elettronica":false},{"id":162,"codice_nazione":"IT","indirizzo":"S.s. 155 Per Fiuggi Km 16+050","comune":"Acuto","cap":"03010","longitudine":"13.209172","latitudine":"41.776604","servizi_mobile_payment":true,"fatturazione_elettronica":true},{"id":164,"codice_nazione":"IT","indirizzo":"Cs Orbassano 150 A","comune":"Torino","cap":"10136","longitudine":"7.6427755","latitudine":"45.04476","servizi_mobile_payment":true,"fatturazione_elettronica":true},{"id":165,"codice_nazione":"IT","indirizzo":"S.s. 213 Flacca Km 9+842","comune":"Fondi","cap":"04022","longitudine":"13.392414","latitudine":"41.284523","servizi_mobile_payment":true,"fatturazione_elettronica":true},{"id":166,"codice_nazione":"IT","indirizzo":"Sp 31 Crotallo Km 0+700","comune":"Latina","cap":"04013","longitudine":"12.938145","latitudine":"41.533573","servizi_mobile_payment":true,"fatturazione_elettronica":true},{"id":167,"codice_nazione":"IT","indirizzo":"Aut Bo\/canosa Aut","comune":"Morro D\u0027oro","cap":"64020","longitudine":"13.94073","latitudine":"42.67008","servizi_mobile_payment":true,"fatturazione_elettronica":true},{"id":168,"codice_nazione":"IT","indirizzo":"Ss. 16 Km 888+013","comune":"Carovigno","cap":"72012","longitudine":"17.654129","latitudine":"40.704903","servizi_mobile_payment":true,"fatturazione_elettronica":true},{"id":169,"codice_nazione":"IT","indirizzo":"Prov Ta\/statte","comune":"Statte","cap":"74010","longitudine":"17.206293","latitudine":"40.559544","servizi_mobile_payment":true,"fatturazione_elettronica":true},{"id":170,"codice_nazione":"IT","indirizzo":"Via Nazionale, 148","comune":"Misano Adriatico","cap":"47046","longitudine":"12.70404","latitudine":"43.970028","servizi_mobile_payment":true,"fatturazione_elettronica":true},{"id":171,"codice_nazione":"IT","indirizzo":"Viale  Europa","comune":"Cusago","cap":"20090","longitudine":"9.043219","latitudine":"45.44153","servizi_mobile_payment":true,"fatturazione_elettronica":true},{"id":172,"codice_nazione":"IT","indirizzo":"Ss 124 Km 115+973  C Da Tremilia Sn","comune":"Siracusa","cap":"96100","longitudine":"15.231471","latitudine":"37.072414","servizi_mobile_payment":true,"fatturazione_elettronica":true},{"id":173,"codice_nazione":"IT","indirizzo":"Via Mazzini N.220","comune":"Sassuolo","cap":"41049","longitudine":"10.792762","latitudine":"44.5389","servizi_mobile_payment":true,"fatturazione_elettronica":true},{"id":174,"codice_nazione":"IT","indirizzo":"Spilamberto+ 1015","comune":"Vignola","cap":"41058","longitudine":"11.018211","latitudine":"44.49498","servizi_mobile_payment":true,"fatturazione_elettronica":true},{"id":175,"codice_nazione":"IT","indirizzo":"Via Venezia","comune":"San Daniele Del Friuli","cap":"33038","longitudine":"12.988818","latitudine":"46.1488","servizi_mobile_payment":true,"fatturazione_elettronica":true},{"id":176,"codice_nazione":"IT","indirizzo":"Ravegnana","comune":"Forli\u0027","cap":"47100","longitudine":"12.065833","latitudine":"44.238686","servizi_mobile_payment":true,"fatturazione_elettronica":true},{"id":177,"codice_nazione":"IT","indirizzo":"Loc. Lido Via S. Gallo","comune":"Venezia","cap":"30126","longitudine":"12.360593","latitudine":"45.40055","servizi_mobile_payment":true,"fatturazione_elettronica":true},{"id":178,"codice_nazione":"IT","indirizzo":"V.migliara,58\/macchia Pia","comune":"Terracina","cap":"04019","longitudine":"13.142062","latitudine":"41.290432","servizi_mobile_payment":true,"fatturazione_elettronica":true},{"id":179,"codice_nazione":"IT","indirizzo":"Via Boscariello Snc","comune":"Gricignano Di Aversa","cap":"81030","longitudine":"14.236921","latitudine":"40.985943","servizi_mobile_payment":true,"fatturazione_elettronica":true},{"id":180,"codice_nazione":"IT","indirizzo":"Via Madonna","comune":"Bovolone","cap":"37051","longitudine":"11.097814","latitudine":"45.273148","servizi_mobile_payment":true,"fatturazione_elettronica":true},{"id":181,"codice_nazione":"IT","indirizzo":"Ss.130km.50,127","comune":"Iglesias","cap":"09016","longitudine":"8.5662155","latitudine":"39.30305","servizi_mobile_payment":true,"fatturazione_elettronica":true},{"id":183,"codice_nazione":"IT","indirizzo":"Loc.pierreggio E\/45, Corsia Sud  0","comune":"Pieve Santo Stefano","cap":"52036","longitudine":"12.05148","latitudine":"43.65863","servizi_mobile_payment":true,"fatturazione_elettronica":false},{"id":184,"codice_nazione":"IT","indirizzo":"V.le Oceano Pacifico","comune":"Roma","cap":"00144","longitudine":"12.457918","latitudine":"41.82369","servizi_mobile_payment":true,"fatturazione_elettronica":true},{"id":185,"codice_nazione":"IT","indirizzo":"Ss 413 Km 61748 Loc.lesignana","comune":"Modena","cap":"41100","longitudine":"10.8945465","latitudine":"44.67994","servizi_mobile_payment":true,"fatturazione_elettronica":true},{"id":186,"codice_nazione":"IT","indirizzo":"Provinc.per Monteron","comune":"Lecce","cap":"73100","longitudine":"18.15065","latitudine":"40.346214","servizi_mobile_payment":true,"fatturazione_elettronica":true},{"id":187,"codice_nazione":"IT","indirizzo":"Ss 117 Bis Km 40","comune":"Piazza Armerina","cap":"94015","longitudine":"14.363394","latitudine":"37.37543","servizi_mobile_payment":true,"fatturazione_elettronica":true},{"id":188,"codice_nazione":"IT","indirizzo":"Via Medici 22","comune":"Vicenza","cap":"36100","longitudine":"11.544721","latitudine":"45.559254","servizi_mobile_payment":true,"fatturazione_elettronica":true},{"id":189,"codice_nazione":"IT","indirizzo":"Via Chivasso 22 22","comune":"Gassino Torinese","cap":"10090","longitudine":"7.8276896","latitudine":"45.13204","servizi_mobile_payment":true,"fatturazione_elettronica":true},{"id":190,"codice_nazione":"IT","indirizzo":"Via Boccea Km. 5 Snc","comune":"Roma","cap":"00166","longitudine":"12.363787","latitudine":"41.925182","servizi_mobile_payment":false,"fatturazione_elettronica":false},{"id":191,"codice_nazione":"IT","indirizzo":"Tr\/roma Salaria Oves Aut. Aut.","comune":"Roma","cap":"00137","longitudine":"12.52793","latitudine":"42.0035","servizi_mobile_payment":true,"fatturazione_elettronica":true},{"id":192,"codice_nazione":"IT","indirizzo":"Via Stalingrado 11r","comune":"Savona","cap":"17100","longitudine":"8.464816","latitudine":"44.3002","servizi_mobile_payment":true,"fatturazione_elettronica":true},{"id":195,"codice_nazione":"IT","indirizzo":"Via Tiro A Segno","comune":"Arzignano","cap":"36071","longitudine":"11.337217","latitudine":"45.513195","servizi_mobile_payment":true,"fatturazione_elettronica":true},{"id":196,"codice_nazione":"IT","indirizzo":"N. Sauro Angolo Via C. Colombo*","comune":"Cisternino","cap":"72014","longitudine":"17.430502","latitudine":"40.743988","servizi_mobile_payment":true,"fatturazione_elettronica":true},{"id":197,"codice_nazione":"IT","indirizzo":"Viale Pratese  Snc","comune":"Sesto Fiorentino","cap":"50019","longitudine":"11.185849","latitudine":"43.841946","servizi_mobile_payment":true,"fatturazione_elettronica":true},{"id":200,"codice_nazione":"IT","indirizzo":"Tang. Na Loc. Doganella","comune":"Napoli","cap":"80144","longitudine":"14.27908","latitudine":"40.87295","servizi_mobile_payment":true,"fatturazione_elettronica":false},{"id":202,"codice_nazione":"IT","indirizzo":"Ss 20 Km 18+550","comune":"Carmagnola","cap":"10022","longitudine":"7.72412","latitudine":"44.85622","servizi_mobile_payment":true,"fatturazione_elettronica":true},{"id":203,"codice_nazione":"IT","indirizzo":"Loc Fae\u0027","comune":"Longarone","cap":"32013","longitudine":"12.29831","latitudine":"46.2481","servizi_mobile_payment":true,"fatturazione_elettronica":true},{"id":204,"codice_nazione":"IT","indirizzo":"S.s. 406 Km 7+930 37 37","comune":"Antey-saint-andre\u0027","cap":"01020","longitudine":"7.5875244","latitudine":"45.809174","servizi_mobile_payment":true,"fatturazione_elettronica":true},{"id":205,"codice_nazione":"IT","indirizzo":"Strada Trossi Ss230","comune":"Biella","cap":"13051","longitudine":"8.0725765","latitudine":"45.5489","servizi_mobile_payment":true,"fatturazione_elettronica":true},{"id":207,"codice_nazione":"IT","indirizzo":"Strada Com.le To\/susa","comune":"Pianezza","cap":"10044","longitudine":"7.556","latitudine":"45.09817","servizi_mobile_payment":true,"fatturazione_elettronica":true},{"id":209,"codice_nazione":"IT","indirizzo":"Piazza Roma 2\/a","comune":"Pedaso","cap":"63016","longitudine":"13.841748","latitudine":"43.0969","servizi_mobile_payment":true,"fatturazione_elettronica":true},{"id":210,"codice_nazione":"IT","indirizzo":"Via F. Turati 138","comune":"Giulianova","cap":"64022","longitudine":"13.96777","latitudine":"42.746433","servizi_mobile_payment":true,"fatturazione_elettronica":true},{"id":211,"codice_nazione":"IT","indirizzo":"Igino Garbini","comune":"Viterbo","cap":"01100","longitudine":"12.099548","latitudine":"42.43335","servizi_mobile_payment":true,"fatturazione_elettronica":true},{"id":212,"codice_nazione":"IT","indirizzo":"Via Cecilio","comune":"Como","cap":"22100","longitudine":"9.059734","latitudine":"45.784065","servizi_mobile_payment":true,"fatturazione_elettronica":true},{"id":213,"codice_nazione":"IT","indirizzo":"De Gasperi Loc.chiarano 59","comune":"Arco","cap":"38062","longitudine":"10.86808","latitudine":"45.91816","servizi_mobile_payment":true,"fatturazione_elettronica":false},{"id":216,"codice_nazione":"IT","indirizzo":"Ss.407 Basentana Km.137,295  Snc","comune":"Pisticci","cap":"75015","longitudine":"16.54123","latitudine":"40.42407","servizi_mobile_payment":true,"fatturazione_elettronica":true},{"id":217,"codice_nazione":"IT","indirizzo":"Strada Noalese","comune":"Treviso","cap":"31100","longitudine":"12.18599","latitudine":"45.650043","servizi_mobile_payment":true,"fatturazione_elettronica":true},{"id":218,"codice_nazione":"IT","indirizzo":"Loc. S.lucia Loc. Santa Lucia","comune":"Roseto Degli Abruzzi","cap":"64022","longitudine":"13.96033","latitudine":"42.64616","servizi_mobile_payment":true,"fatturazione_elettronica":false},{"id":219,"codice_nazione":"IT","indirizzo":"Via Novara 40\/42","comune":"Oleggio","cap":"28047","longitudine":"8.638424","latitudine":"45.591465","servizi_mobile_payment":true,"fatturazione_elettronica":true},{"id":220,"codice_nazione":"IT","indirizzo":"Loc-quadrelle","comune":"Pontedera","cap":"56025","longitudine":"10.58071","latitudine":"43.66365","servizi_mobile_payment":true,"fatturazione_elettronica":true},{"id":221,"codice_nazione":"IT","indirizzo":"Ads A22 Campogalliano Est","comune":"Campogalliano","cap":"41011","longitudine":"10.849062","latitudine":"44.70428","servizi_mobile_payment":true,"fatturazione_elettronica":true},{"id":223,"codice_nazione":"IT","indirizzo":"Pontina Km 27*100","comune":"Roma","cap":"00040","longitudine":"12.481249","latitudine":"41.69215","servizi_mobile_payment":true,"fatturazione_elettronica":true},{"id":224,"codice_nazione":"IT","indirizzo":"Ss 33 Sempione Km 8+386","comune":"Pero","cap":"20016","longitudine":"9.09573","latitudine":"45.50752","servizi_mobile_payment":true,"fatturazione_elettronica":true},{"id":227,"codice_nazione":"IT","indirizzo":"Spartaco","comune":"Roma","cap":"00174","longitudine":"12.5587635","latitudine":"41.855675","servizi_mobile_payment":true,"fatturazione_elettronica":true},{"id":228,"codice_nazione":"IT","indirizzo":"Cimitile","comune":"Nola","cap":"80035","longitudine":"14.52888","latitudine":"40.93193","servizi_mobile_payment":false,"fatturazione_elettronica":false},{"id":229,"codice_nazione":"IT","indirizzo":"S.p. Maremmana","comune":"Castel Gandolfo","cap":"00040","longitudine":"12.64756","latitudine":"41.75333","servizi_mobile_payment":true,"fatturazione_elettronica":true},{"id":231,"codice_nazione":"IT","indirizzo":"Via Casilina Km 12+943 1423","comune":"Roma","cap":"00133","longitudine":"12.622899","latitudine":"41.862602","servizi_mobile_payment":true,"fatturazione_elettronica":true},{"id":232,"codice_nazione":"IT","indirizzo":"Tor Bellamonaca Dir. Casilina","comune":"Roma","cap":"00133","longitudine":"12.62683","latitudine":"41.87671","servizi_mobile_payment":false,"fatturazione_elettronica":false},{"id":233,"codice_nazione":"IT","indirizzo":"Viale Primo Maggio 77","comune":"Azzano X","cap":"33082","longitudine":"12.72008","latitudine":"45.88043","servizi_mobile_payment":true,"fatturazione_elettronica":true},{"id":234,"codice_nazione":"IT","indirizzo":"Napoli-loc.s.franc.r","comune":"Bari","cap":"70132","longitudine":"16.831158","latitudine":"41.13015","servizi_mobile_payment":true,"fatturazione_elettronica":true},{"id":235,"codice_nazione":"IT","indirizzo":"Str Traf M Bianco","comune":"Courmayeur","cap":"11013","longitudine":"6.970004","latitudine":"45.786724","servizi_mobile_payment":true,"fatturazione_elettronica":true},{"id":236,"codice_nazione":"IT","indirizzo":"Fanelli\/vigna Laura","comune":"Bari","cap":"70125","longitudine":"16.879515","latitudine":"41.10251","servizi_mobile_payment":true,"fatturazione_elettronica":true},{"id":237,"codice_nazione":"IT","indirizzo":"S.s. 455 Km 16+151","comune":"Trino","cap":"13039","longitudine":"8.300753","latitudine":"45.204407","servizi_mobile_payment":true,"fatturazione_elettronica":false},{"id":238,"codice_nazione":"IT","indirizzo":"S.p. 593 Km. 2+706","comune":"Moncrivello","cap":"13040","longitudine":"8.031455","latitudine":"45.32035","servizi_mobile_payment":true,"fatturazione_elettronica":true},{"id":239,"codice_nazione":"IT","indirizzo":"Almerico Meomartini","comune":"Benevento","cap":"82100","longitudine":"14.794349","latitudine":"41.122326","servizi_mobile_payment":true,"fatturazione_elettronica":true},{"id":240,"codice_nazione":"IT","indirizzo":"Via Principe Di Udine","comune":"Campoformido","cap":"33030","longitudine":"13.1684","latitudine":"46.02511","servizi_mobile_payment":true,"fatturazione_elettronica":true},{"id":241,"codice_nazione":"IT","indirizzo":"Via  Nizza 20","comune":"Borgo San Dalmazzo","cap":"12011","longitudine":"7.485196","latitudine":"44.326775","servizi_mobile_payment":true,"fatturazione_elettronica":true},{"id":242,"codice_nazione":"IT","indirizzo":"Via Da Legnago","comune":"Verona","cap":"37100","longitudine":"11.052272","latitudine":"45.452312","servizi_mobile_payment":true,"fatturazione_elettronica":true},{"id":243,"codice_nazione":"IT","indirizzo":"Ss 25 Km 38+426","comune":"Borgone Susa","cap":"10050","longitudine":"7.2300215","latitudine":"45.124237","servizi_mobile_payment":true,"fatturazione_elettronica":true},{"id":245,"codice_nazione":"IT","indirizzo":"Via Brennero, 4","comune":"Vipiteno","cap":"39049","longitudine":"11.441102","latitudine":"46.88873","servizi_mobile_payment":true,"fatturazione_elettronica":true},{"id":246,"codice_nazione":"IT","indirizzo":"S.r Ferentino-sora","comune":"Alatri","cap":"03011","longitudine":"13.322059","latitudine":"41.66961","servizi_mobile_payment":true,"fatturazione_elettronica":true},{"id":247,"codice_nazione":"IT","indirizzo":"Corso Umberto","comune":"Moncalvo","cap":"14036","longitudine":"8.268833","latitudine":"45.04545","servizi_mobile_payment":true,"fatturazione_elettronica":true},{"id":248,"codice_nazione":"IT","indirizzo":"Predada . 7","comune":"Sacile","cap":"33077","longitudine":"12.51745","latitudine":"45.96813","servizi_mobile_payment":true,"fatturazione_elettronica":true},{"id":249,"codice_nazione":"IT","indirizzo":"Quart. Paolo Vi V.xmontei","comune":"Taranto","cap":"74100","longitudine":"17.274628","latitudine":"40.520058","servizi_mobile_payment":true,"fatturazione_elettronica":true},{"id":250,"codice_nazione":"IT","indirizzo":"V.le Regione Siciliana Nord-oves 5580","comune":"Palermo","cap":"90100","longitudine":"13.321852","latitudine":"38.15184","servizi_mobile_payment":false,"fatturazione_elettronica":false},{"id":251,"codice_nazione":"IT","indirizzo":"Via Dei Brazza\u0027, 22","comune":"Pagnacco","cap":"33010","longitudine":"13.191839","latitudine":"46.092922","servizi_mobile_payment":false,"fatturazione_elettronica":false},{"id":252,"codice_nazione":"IT","indirizzo":"Via Palermo 628","comune":"Catania","cap":"95100","longitudine":"15.045089","latitudine":"37.509415","servizi_mobile_payment":false,"fatturazione_elettronica":false},{"id":254,"codice_nazione":"IT","indirizzo":"Via Emilia Piacentina","comune":"Castel San Giovanni","cap":"29015","longitudine":"9.451972","latitudine":"45.056225","servizi_mobile_payment":true,"fatturazione_elettronica":true},{"id":255,"codice_nazione":"IT","indirizzo":"S.p.35 Valle Seriana","comune":"Casnigo","cap":"24020","longitudine":"9.870415","latitudine":"45.836956","servizi_mobile_payment":true,"fatturazione_elettronica":true},{"id":256,"codice_nazione":"IT","indirizzo":"Via La Spezia 103a","comune":"Parma","cap":"43100","longitudine":"10.303549","latitudine":"44.789364","servizi_mobile_payment":true,"fatturazione_elettronica":true},{"id":257,"codice_nazione":"IT","indirizzo":"Piane Di Chifenti Loc. Chifenti","comune":"Borgo A Mozzano","cap":"55023","longitudine":"10.558225","latitudine":"43.998356","servizi_mobile_payment":true,"fatturazione_elettronica":true},{"id":258,"codice_nazione":"IT","indirizzo":"Cassia Sud Loc. Coroncina 112","comune":"Siena","cap":"53100","longitudine":"11.34305","latitudine":"43.29273","servizi_mobile_payment":true,"fatturazione_elettronica":true},{"id":259,"codice_nazione":"IT","indirizzo":"Via Manzoni\u00a0 Sn","comune":"Loreto","cap":"60025","longitudine":"13.618395","latitudine":"43.443462","servizi_mobile_payment":true,"fatturazione_elettronica":true},{"id":261,"codice_nazione":"IT","indirizzo":"Ss.46km.17","comune":"Malo","cap":"36040","longitudine":"11.407164","latitudine":"45.66527","servizi_mobile_payment":true,"fatturazione_elettronica":true},{"id":262,"codice_nazione":"IT","indirizzo":"Via Degli Alpini,39","comune":"Camisano Vicentino","cap":"36043","longitudine":"11.710126","latitudine":"45.517258","servizi_mobile_payment":true,"fatturazione_elettronica":true},{"id":263,"codice_nazione":"IT","indirizzo":"Zona Industriale","comune":"Solofra","cap":"83029","longitudine":"14.836639","latitudine":"40.832855","servizi_mobile_payment":false,"fatturazione_elettronica":false},{"id":264,"codice_nazione":"IT","indirizzo":"Tuscolana Km 27,480","comune":"Monte Compatri","cap":"00040","longitudine":"12.737255","latitudine":"41.78653","servizi_mobile_payment":true,"fatturazione_elettronica":true},{"id":265,"codice_nazione":"IT","indirizzo":"Via Degli Oliveti","comune":"Massa","cap":"54100","longitudine":"10.11088","latitudine":"44.02733","servizi_mobile_payment":false,"fatturazione_elettronica":false},{"id":266,"codice_nazione":"IT","indirizzo":"Via Dei Lidi","comune":"Olbia","cap":"07026","longitudine":"9.504864","latitudine":"40.92974","servizi_mobile_payment":true,"fatturazione_elettronica":true},{"id":267,"codice_nazione":"IT","indirizzo":"Fraz-s-antonio Ss-17","comune":"L\u0027aquila","cap":"67100","longitudine":"13.377506","latitudine":"42.36061","servizi_mobile_payment":true,"fatturazione_elettronica":true},{"id":269,"codice_nazione":"IT","indirizzo":"Via Elorina Sn","comune":"Siracusa","cap":"96100","longitudine":"15.276366","latitudine":"37.066067","servizi_mobile_payment":false,"fatturazione_elettronica":false},{"id":271,"codice_nazione":"IT","indirizzo":"Cs Sempione \/ S Francesco 226","comune":"Legnano","cap":"20025","longitudine":"8.915033","latitudine":"45.6038","servizi_mobile_payment":true,"fatturazione_elettronica":false},{"id":272,"codice_nazione":"IT","indirizzo":"Milano 4 4","comune":"Giussano","cap":"20034","longitudine":"9.208601","latitudine":"45.696045","servizi_mobile_payment":true,"fatturazione_elettronica":true},{"id":274,"codice_nazione":"IT","indirizzo":"Tangenziale Ovest Km 10+150  Sn","comune":"Misterbianco","cap":"95045","longitudine":"15.012495","latitudine":"37.4804","servizi_mobile_payment":true,"fatturazione_elettronica":true},{"id":275,"codice_nazione":"IT","indirizzo":"Della Liberta\u0027","comune":"Latiano","cap":"72022","longitudine":"17.725641","latitudine":"40.55312","servizi_mobile_payment":true,"fatturazione_elettronica":true},{"id":276,"codice_nazione":"IT","indirizzo":"V.le Della Repubblica 237 237","comune":"Prato","cap":"59100","longitudine":"11.1093","latitudine":"43.862198","servizi_mobile_payment":true,"fatturazione_elettronica":true},{"id":277,"codice_nazione":"IT","indirizzo":"Via Di Torrevecchia, 368","comune":"Roma","cap":"00168","longitudine":"12.414547","latitudine":"41.92587","servizi_mobile_payment":false,"fatturazione_elettronica":false},{"id":278,"codice_nazione":"IT","indirizzo":"Ss.106 Km.121+740","comune":"Caulonia","cap":"89040","longitudine":"16.46973","latitudine":"38.3463","servizi_mobile_payment":true,"fatturazione_elettronica":true},{"id":279,"codice_nazione":"IT","indirizzo":"Ss 12 Via Molino Di Sopra 46","comune":"Nogara","cap":"37054","longitudine":"11.053155","latitudine":"45.190628","servizi_mobile_payment":true,"fatturazione_elettronica":true},{"id":280,"codice_nazione":"IT","indirizzo":"Fraz Olmo Str Prov","comune":"Creazzo","cap":"36051","longitudine":"11.48508","latitudine":"45.53021","servizi_mobile_payment":false,"fatturazione_elettronica":true},{"id":281,"codice_nazione":"IT","indirizzo":"Via Matteotti, 16","comune":"Osio Sotto","cap":"24046","longitudine":"9.593164","latitudine":"45.617355","servizi_mobile_payment":true,"fatturazione_elettronica":true},{"id":283,"codice_nazione":"IT","indirizzo":"Via Togliatti 26\/a Loc. Montecavolo 26\/a","comune":"Quattro Castella","cap":"42020","longitudine":"10.550094","latitudine":"44.6352","servizi_mobile_payment":true,"fatturazione_elettronica":true},{"id":285,"codice_nazione":"IT","indirizzo":"Ariis","comune":"Pocenia","cap":"33050","longitudine":"13.09705","latitudine":"45.84141","servizi_mobile_payment":false,"fatturazione_elettronica":false},{"id":286,"codice_nazione":"IT","indirizzo":"S.giovanni Bosco","comune":"Bagheria","cap":"90011","longitudine":"13.508675","latitudine":"38.06959","servizi_mobile_payment":true,"fatturazione_elettronica":true},{"id":287,"codice_nazione":"IT","indirizzo":"Via Buiatti, 60","comune":"Mortegliano","cap":"33050","longitudine":"13.1922035","latitudine":"45.964947","servizi_mobile_payment":true,"fatturazione_elettronica":false},{"id":288,"codice_nazione":"IT","indirizzo":"Via Dell\u0027industria","comune":"Bologna","cap":"40138","longitudine":"11.410913","latitudine":"44.50675","servizi_mobile_payment":true,"fatturazione_elettronica":true},{"id":289,"codice_nazione":"IT","indirizzo":"Via Barcellona Sn","comune":"Olbia","cap":"07026","longitudine":"9.46593","latitudine":"40.92927","servizi_mobile_payment":false,"fatturazione_elettronica":false},{"id":290,"codice_nazione":"IT","indirizzo":"Via Nazionale  143","comune":"Fornovo Di Taro","cap":"43045","longitudine":"10.09712","latitudine":"44.68674","servizi_mobile_payment":true,"fatturazione_elettronica":true},{"id":291,"codice_nazione":"IT","indirizzo":"Caduti Per La Liberta\u0027 12","comune":"Cervia","cap":"48015","longitudine":"12.35074","latitudine":"44.258305","servizi_mobile_payment":true,"fatturazione_elettronica":true},{"id":292,"codice_nazione":"IT","indirizzo":"Via Ninguarda 146","comune":"Albate - Como-","cap":"22100","longitudine":"9.098498","latitudine":"45.7648","servizi_mobile_payment":true,"fatturazione_elettronica":false},{"id":293,"codice_nazione":"IT","indirizzo":"Ss Alto Polesano","comune":"Ostiglia","cap":"46035","longitudine":"11.128885","latitudine":"45.073025","servizi_mobile_payment":true,"fatturazione_elettronica":true},{"id":294,"codice_nazione":"IT","indirizzo":"Via Guardapasso, 65","comune":"Aprilia","cap":"04100","longitudine":"12.670087","latitudine":"41.570618","servizi_mobile_payment":true,"fatturazione_elettronica":false},{"id":295,"codice_nazione":"IT","indirizzo":"S S 430 Km 0+525","comune":"San Vittore Del Lazio","cap":"03040","longitudine":"13.914907","latitudine":"41.44475","servizi_mobile_payment":true,"fatturazione_elettronica":true},{"id":296,"codice_nazione":"IT","indirizzo":"Via Triumplina 128","comune":"Brescia","cap":"25136","longitudine":"10.227226","latitudine":"45.586243","servizi_mobile_payment":false,"fatturazione_elettronica":false},{"id":297,"codice_nazione":"IT","indirizzo":"Ing.carlo Romagnoli","comune":"Latina","cap":"04100","longitudine":"12.8943615","latitudine":"41.470726","servizi_mobile_payment":true,"fatturazione_elettronica":true},{"id":299,"codice_nazione":"IT","indirizzo":"Via Tiburtina Km 19,800 0145 0145","comune":"Guidonia Montecelio","cap":"00011","longitudine":"12.690068","latitudine":"41.952026","servizi_mobile_payment":true,"fatturazione_elettronica":true},{"id":300,"codice_nazione":"IT","indirizzo":"Di Villa Chigi","comune":"Roma","cap":"00199","longitudine":"12.514097","latitudine":"41.93432","servizi_mobile_payment":true,"fatturazione_elettronica":true},{"id":301,"codice_nazione":"IT","indirizzo":"Unita Italia","comune":"Caserta","cap":"81100","longitudine":"14.34165","latitudine":"41.07226","servizi_mobile_payment":true,"fatturazione_elettronica":true},{"id":302,"codice_nazione":"IT","indirizzo":"Via Galileo Ferraris","comune":"Napoli","cap":"80121","longitudine":"14.278429","latitudine":"40.85017","servizi_mobile_payment":false,"fatturazione_elettronica":false},{"id":303,"codice_nazione":"IT","indirizzo":"Corso Italia 70","comune":"Cortina D\u0027ampezzo","cap":"32043","longitudine":"12.135149","latitudine":"46.540806","servizi_mobile_payment":true,"fatturazione_elettronica":true},{"id":304,"codice_nazione":"IT","indirizzo":"Via Piacenza Snc","comune":"Chiavari","cap":"16043","longitudine":"9.341102","latitudine":"44.32006","servizi_mobile_payment":false,"fatturazione_elettronica":false},{"id":305,"codice_nazione":"IT","indirizzo":"Sc Inter  Ex Ss 115 Km335+800 Di Marcia Gela Sr  S","comune":"Modica","cap":"97015","longitudine":"14.760884","latitudine":"36.858948","servizi_mobile_payment":false,"fatturazione_elettronica":false},{"id":307,"codice_nazione":"IT","indirizzo":"Ss131 Km.87+192","comune":"Santa Giusta","cap":"09025","longitudine":"8.61275","latitudine":"39.86072","servizi_mobile_payment":true,"fatturazione_elettronica":true},{"id":308,"codice_nazione":"IT","indirizzo":"P.zza Del Molo","comune":"Palau","cap":"07020","longitudine":"9.385214","latitudine":"41.180733","servizi_mobile_payment":true,"fatturazione_elettronica":true},{"id":310,"codice_nazione":"IT","indirizzo":"Sp 231 (ex Ss 98 Km 10+050)","comune":"Canosa Di Puglia","cap":"70053","longitudine":"16.03601","latitudine":"41.2289","servizi_mobile_payment":true,"fatturazione_elettronica":true},{"id":312,"codice_nazione":"IT","indirizzo":"Via Mattei  26\/a Loc. Valle Cascia","comune":"Montecassiano","cap":"62010","longitudine":"13.433826","latitudine":"43.346897","servizi_mobile_payment":true,"fatturazione_elettronica":true},{"id":314,"codice_nazione":"IT","indirizzo":"Guido Nati 0054","comune":"Velletri","cap":"00049","longitudine":"12.77947","latitudine":"41.68722","servizi_mobile_payment":true,"fatturazione_elettronica":true},{"id":315,"codice_nazione":"IT","indirizzo":"Molfetta","comune":"Bisceglie","cap":"70052","longitudine":"16.509363","latitudine":"41.234818","servizi_mobile_payment":true,"fatturazione_elettronica":true},{"id":317,"codice_nazione":"IT","indirizzo":"V.brennero Loc. Frassine 22\/e","comune":"Mantova","cap":"46100","longitudine":"10.82935","latitudine":"45.15055","servizi_mobile_payment":true,"fatturazione_elettronica":true},{"id":318,"codice_nazione":"IT","indirizzo":"Piave","comune":"Vado Ligure","cap":"17047","longitudine":"8.434413","latitudine":"44.268272","servizi_mobile_payment":true,"fatturazione_elettronica":true},{"id":319,"codice_nazione":"IT","indirizzo":"Loc Caperdone","comune":"Casalbuttano Ed Uniti","cap":"26011","longitudine":"9.963981","latitudine":"45.24592","servizi_mobile_payment":true,"fatturazione_elettronica":true},{"id":320,"codice_nazione":"IT","indirizzo":"Coccia Di Morto 139","comune":"Fiumicino","cap":"00054","longitudine":"12.2356","latitudine":"41.784542","servizi_mobile_payment":true,"fatturazione_elettronica":true},{"id":322,"codice_nazione":"IT","indirizzo":"Viale Europa\/liguria","comune":"Cologno Monzese","cap":"20093","longitudine":"9.265424","latitudine":"45.525223","servizi_mobile_payment":true,"fatturazione_elettronica":true},{"id":323,"codice_nazione":"IT","indirizzo":"V.le Ferrovia","comune":"Orta Nova","cap":"71045","longitudine":"15.71708","latitudine":"41.33153","servizi_mobile_payment":true,"fatturazione_elettronica":true},{"id":324,"codice_nazione":"IT","indirizzo":"Romea Nord, 102","comune":"Ravenna","cap":"48100","longitudine":"12.211955","latitudine":"44.437607","servizi_mobile_payment":true,"fatturazione_elettronica":true},{"id":326,"codice_nazione":"IT","indirizzo":"Di Portonaccio 0034","comune":"Roma","cap":"00159","longitudine":"12.535754","latitudine":"41.90481","servizi_mobile_payment":true,"fatturazione_elettronica":true},{"id":327,"codice_nazione":"IT","indirizzo":"S.p. 262 Dir. Km 4+523","comune":"Mosciano Sant\u0027angelo","cap":"64023","longitudine":"13.9066305","latitudine":"42.72272","servizi_mobile_payment":false,"fatturazione_elettronica":false},{"id":328,"codice_nazione":"IT","indirizzo":"Via G.di Vittorio 19","comune":"Campogalliano","cap":"41011","longitudine":"10.845941","latitudine":"44.691235","servizi_mobile_payment":true,"fatturazione_elettronica":true},{"id":329,"codice_nazione":"IT","indirizzo":"Ponte Roma","comune":"Bolzano","cap":"39100","longitudine":"11.34316","latitudine":"46.48756","servizi_mobile_payment":true,"fatturazione_elettronica":true},{"id":330,"codice_nazione":"IT","indirizzo":"S.p. Nichelino Candiolo","comune":"Nichelino","cap":"10042","longitudine":"7.6359043","latitudine":"44.98582","servizi_mobile_payment":true,"fatturazione_elettronica":true},{"id":331,"codice_nazione":"IT","indirizzo":"S.s. 77 Km. 104+378","comune":"Civitanova Marche","cap":"62012","longitudine":"13.66603","latitudine":"43.2792","servizi_mobile_payment":false,"fatturazione_elettronica":false},{"id":333,"codice_nazione":"IT","indirizzo":"Viale Colombo 189\/d","comune":"Quartu Sant\u0027elena","cap":"09045","longitudine":"9.186487","latitudine":"39.23314","servizi_mobile_payment":true,"fatturazione_elettronica":true},{"id":335,"codice_nazione":"IT","indirizzo":"Palo Laziale 8","comune":"Ladispoli","cap":"00053","longitudine":"12.085263","latitudine":"41.94572","servizi_mobile_payment":true,"fatturazione_elettronica":true},{"id":337,"codice_nazione":"IT","indirizzo":"S.s.7 Bis\/var Km 19+300","comune":"Carinaro","cap":"81032","longitudine":"14.216257","latitudine":"40.99899","servizi_mobile_payment":true,"fatturazione_elettronica":true},{"id":338,"codice_nazione":"IT","indirizzo":"Fraz-venturina Ss-1 Loc.venturina","comune":"Campiglia Marittima","cap":"57021","longitudine":"10.598796","latitudine":"43.03099","servizi_mobile_payment":true,"fatturazione_elettronica":true},{"id":339,"codice_nazione":"IT","indirizzo":"Garibaldi","comune":"Ribera","cap":"92016","longitudine":"13.258879","latitudine":"37.500057","servizi_mobile_payment":true,"fatturazione_elettronica":true},{"id":340,"codice_nazione":"IT","indirizzo":"Aurelia Sud Km.354","comune":"Viareggio","cap":"55049","longitudine":"10.275526","latitudine":"43.852848","servizi_mobile_payment":true,"fatturazione_elettronica":true},{"id":341,"codice_nazione":"IT","indirizzo":"Via Divilla Carrara","comune":"Sora","cap":"03039","longitudine":"13.611328","latitudine":"41.701042","servizi_mobile_payment":true,"fatturazione_elettronica":true},{"id":342,"codice_nazione":"IT","indirizzo":"Loc.mellaredo Via Noalese Sud S.s.","comune":"Pianiga","cap":"30030","longitudine":"11.993365","latitudine":"45.457256","servizi_mobile_payment":true,"fatturazione_elettronica":true},{"id":343,"codice_nazione":"IT","indirizzo":"Vi.le Regione Siciliana Dir. Pa-tp Bonagia Snc","comune":"Palermo","cap":"90125","longitudine":"13.367152","latitudine":"38.08791","servizi_mobile_payment":false,"fatturazione_elettronica":false},{"id":344,"codice_nazione":"IT","indirizzo":"Via Bolognese - Loc. La Lastra Snc","comune":"Firenze","cap":"50100","longitudine":"11.274832","latitudine":"43.806408","servizi_mobile_payment":true,"fatturazione_elettronica":true},{"id":345,"codice_nazione":"IT","indirizzo":"Piave Ang-viapetrarc","comune":"Merano","cap":"39012","longitudine":"11.158507","latitudine":"46.666126","servizi_mobile_payment":true,"fatturazione_elettronica":true},{"id":346,"codice_nazione":"IT","indirizzo":"S S 93 Km 81+847","comune":"Rionero In Vulture","cap":"85028","longitudine":"15.66902","latitudine":"40.92026","servizi_mobile_payment":true,"fatturazione_elettronica":true},{"id":347,"codice_nazione":"IT","indirizzo":"Via Illica","comune":"Castell\u0027arquato","cap":"29014","longitudine":"9.875099","latitudine":"44.8524","servizi_mobile_payment":true,"fatturazione_elettronica":true},{"id":348,"codice_nazione":"IT","indirizzo":"Via Muselle S.s.434 Km 22+224","comune":"Isola Rizza","cap":"37050","longitudine":"11.18055","latitudine":"45.28968","servizi_mobile_payment":false,"fatturazione_elettronica":false},{"id":349,"codice_nazione":"IT","indirizzo":"Ss 38 Stelvio","comune":"Chiuro","cap":"23030","longitudine":"9.979619","latitudine":"46.163685","servizi_mobile_payment":true,"fatturazione_elettronica":true},{"id":350,"codice_nazione":"IT","indirizzo":"Via Gargano 17\/b","comune":"Roma","cap":"00141","longitudine":"12.533962","latitudine":"41.93618","servizi_mobile_payment":true,"fatturazione_elettronica":true},{"id":351,"codice_nazione":"IT","indirizzo":"S.s.89 Km. 68+500","comune":"Rodi Garganico","cap":"71012","longitudine":"15.881724","latitudine":"41.927906","servizi_mobile_payment":true,"fatturazione_elettronica":true},{"id":352,"codice_nazione":"IT","indirizzo":"Viale Di Vittorio  Sn","comune":"Manfredonia","cap":"71043","longitudine":"15.906038","latitudine":"41.621952","servizi_mobile_payment":true,"fatturazione_elettronica":true},{"id":354,"codice_nazione":"IT","indirizzo":"P.zza Fonte Vecchia","comune":"Calangianus","cap":"07023","longitudine":"9.195821","latitudine":"40.920254","servizi_mobile_payment":true,"fatturazione_elettronica":true},{"id":355,"codice_nazione":"IT","indirizzo":"S.s. 305 Km 14+72","comune":"Ronchi Dei Legionari","cap":"34077","longitudine":"13.49363","latitudine":"45.8403","servizi_mobile_payment":true,"fatturazione_elettronica":true},{"id":356,"codice_nazione":"IT","indirizzo":"Via Emilia Romagna, 160","comune":"Cattolica","cap":"47033","longitudine":"12.728138","latitudine":"43.96401","servizi_mobile_payment":true,"fatturazione_elettronica":true},{"id":357,"codice_nazione":"IT","indirizzo":"Vl Sicilia  40","comune":"Monza","cap":"20052","longitudine":"9.30296","latitudine":"45.58142","servizi_mobile_payment":true,"fatturazione_elettronica":true},{"id":358,"codice_nazione":"IT","indirizzo":"Pace.","comune":"Rho","cap":"20017","longitudine":"9.057297","latitudine":"45.529312","servizi_mobile_payment":true,"fatturazione_elettronica":true},{"id":359,"codice_nazione":"IT","indirizzo":"S S 7 Km 207+600","comune":"Santa Maria Capua Vetere","cap":"81055","longitudine":"14.266634","latitudine":"41.081608","servizi_mobile_payment":true,"fatturazione_elettronica":true},{"id":360,"codice_nazione":"IT","indirizzo":"Variante Prov- Ss-5","comune":"Tagliacozzo","cap":"67069","longitudine":"13.25086","latitudine":"42.0743","servizi_mobile_payment":true,"fatturazione_elettronica":true},{"id":361,"codice_nazione":"IT","indirizzo":"Via G. Bruno,71","comune":"Alessandria","cap":"15100","longitudine":"8.59294","latitudine":"44.920975","servizi_mobile_payment":true,"fatturazione_elettronica":true},{"id":362,"codice_nazione":"IT","indirizzo":"Via Nazionale","comune":"Calcinate","cap":"24050","longitudine":"9.751916","latitudine":"45.64308","servizi_mobile_payment":true,"fatturazione_elettronica":true},{"id":365,"codice_nazione":"IT","indirizzo":"Circonvallazione 3","comune":"Forlimpopoli","cap":"47034","longitudine":"12.123008","latitudine":"44.187134","servizi_mobile_payment":true,"fatturazione_elettronica":true},{"id":366,"codice_nazione":"IT","indirizzo":"Tagliamento 0049","comune":"Roma","cap":"00198","longitudine":"12.503658","latitudine":"41.920757","servizi_mobile_payment":true,"fatturazione_elettronica":true},{"id":367,"codice_nazione":"IT","indirizzo":"Circonv Gianicolense 0340","comune":"Roma","cap":"00152","longitudine":"12.444838","latitudine":"41.876495","servizi_mobile_payment":true,"fatturazione_elettronica":true},{"id":368,"codice_nazione":"IT","indirizzo":"S.s.10 Via Luppia S.zeno 14","comune":"Montagnana","cap":"35044","longitudine":"11.48681","latitudine":"45.22478","servizi_mobile_payment":true,"fatturazione_elettronica":true},{"id":369,"codice_nazione":"IT","indirizzo":"Str.prov.romana Selva","comune":"Sora","cap":"03039","longitudine":"13.570069","latitudine":"41.71305","servizi_mobile_payment":true,"fatturazione_elettronica":true},{"id":371,"codice_nazione":"IT","indirizzo":"Via Vittorio Veneto 4 4","comune":"Citta\u0027 Di Castello","cap":"06012","longitudine":"12.243751","latitudine":"43.45476","servizi_mobile_payment":true,"fatturazione_elettronica":true},{"id":372,"codice_nazione":"IT","indirizzo":"Europa","comune":"Marano Vicentino","cap":"36035","longitudine":"11.446152","latitudine":"45.695213","servizi_mobile_payment":true,"fatturazione_elettronica":true},{"id":373,"codice_nazione":"IT","indirizzo":"S.s.18 Km.384 + 557","comune":"Nocera Terinese","cap":"88047","longitudine":"16.11791","latitudine":"39.01398","servizi_mobile_payment":true,"fatturazione_elettronica":true},{"id":374,"codice_nazione":"IT","indirizzo":"Cso Australia","comune":"Padova","cap":"35100","longitudine":"11.848618","latitudine":"45.404915","servizi_mobile_payment":true,"fatturazione_elettronica":true},{"id":375,"codice_nazione":"IT","indirizzo":"Sp Cameranense Loc.passo Varano","comune":"Ancona","cap":"60029","longitudine":"13.52436","latitudine":"43.57116","servizi_mobile_payment":true,"fatturazione_elettronica":false},{"id":377,"codice_nazione":"IT","indirizzo":"Circumvallazione Sud","comune":"Suzzara","cap":"46029","longitudine":"10.753394","latitudine":"44.9849","servizi_mobile_payment":true,"fatturazione_elettronica":true},{"id":378,"codice_nazione":"IT","indirizzo":"Unita\u0027 D\u0027italia 9 9","comune":"Pietrasanta","cap":"55045","longitudine":"10.201202","latitudine":"43.95204","servizi_mobile_payment":true,"fatturazione_elettronica":true},{"id":380,"codice_nazione":"IT","indirizzo":"Loc.ta Sirai","comune":"Carbonia","cap":"09013","longitudine":"8.499451","latitudine":"39.18615","servizi_mobile_payment":true,"fatturazione_elettronica":false},{"id":381,"codice_nazione":"IT","indirizzo":"Ss.7 Km.225+637  Snc","comune":"Maddaloni","cap":"81024","longitudine":"14.440219","latitudine":"41.02524","servizi_mobile_payment":true,"fatturazione_elettronica":true},{"id":382,"codice_nazione":"IT","indirizzo":"S.p.n.4 Km.3+200","comune":"Nuvolera","cap":"25080","longitudine":"10.38405","latitudine":"45.5094","servizi_mobile_payment":true,"fatturazione_elettronica":true},{"id":383,"codice_nazione":"IT","indirizzo":"Ss Domitiana Km 6+114","comune":"Cellole","cap":"81037","longitudine":"13.8253","latitudine":"41.20383","servizi_mobile_payment":false,"fatturazione_elettronica":false},{"id":384,"codice_nazione":"IT","indirizzo":"V. Variante Appia Km.7+03","comune":"Minturno","cap":"04026","longitudine":"13.69578","latitudine":"41.26128","servizi_mobile_payment":true,"fatturazione_elettronica":true},{"id":385,"codice_nazione":"IT","indirizzo":"Ss 131 Km 171+350","comune":"Cheremule","cap":"07040","longitudine":"8.750094","latitudine":"40.479694","servizi_mobile_payment":true,"fatturazione_elettronica":true},{"id":386,"codice_nazione":"IT","indirizzo":"Ss 16 Bis Km 787+220 Sud","comune":"Giovinazzo","cap":"70054","longitudine":"16.703346","latitudine":"41.16735","servizi_mobile_payment":true,"fatturazione_elettronica":true},{"id":387,"codice_nazione":"IT","indirizzo":"Via Garibaldi","comune":"Serradifalco","cap":"93010","longitudine":"13.885446","latitudine":"37.453068","servizi_mobile_payment":true,"fatturazione_elettronica":true},{"id":388,"codice_nazione":"IT","indirizzo":"Piazza Marconi","comune":"Milazzo","cap":"98057","longitudine":"15.245399","latitudine":"38.212383","servizi_mobile_payment":true,"fatturazione_elettronica":true},{"id":389,"codice_nazione":"IT","indirizzo":"Aurelia Km 8*456","comune":"Roma","cap":"00165","longitudine":"12.400987","latitudine":"41.886303","servizi_mobile_payment":true,"fatturazione_elettronica":true},{"id":390,"codice_nazione":"IT","indirizzo":"Naz.le Fraz. S. Biagio","comune":"Terme Vigliatore","cap":"98050","longitudine":"15.142549","latitudine":"38.128437","servizi_mobile_payment":true,"fatturazione_elettronica":true},{"id":391,"codice_nazione":"IT","indirizzo":"Via Brennero","comune":"San Michele All\u0027adige","cap":"38010","longitudine":"11.127199","latitudine":"46.187725","servizi_mobile_payment":true,"fatturazione_elettronica":true},{"id":392,"codice_nazione":"IT","indirizzo":"Viale Europa ,1","comune":"Cavriglia","cap":"52022","longitudine":"11.487593","latitudine":"43.525345","servizi_mobile_payment":true,"fatturazione_elettronica":false},{"id":393,"codice_nazione":"IT","indirizzo":"Str Prov La Pieta","comune":"Lamezia Terme","cap":"88046","longitudine":"16.30898","latitudine":"38.962296","servizi_mobile_payment":true,"fatturazione_elettronica":true},{"id":394,"codice_nazione":"IT","indirizzo":"Viale Toselli","comune":"Siena","cap":"53100","longitudine":"11.348369","latitudine":"43.322357","servizi_mobile_payment":true,"fatturazione_elettronica":true},{"id":396,"codice_nazione":"IT","indirizzo":"Bo\/an Montefeltro O. Aut.","comune":"Riccione","cap":"47036","longitudine":"12.619386","latitudine":"43.994137","servizi_mobile_payment":true,"fatturazione_elettronica":true},{"id":397,"codice_nazione":"IT","indirizzo":"Trasversale Di Pianura Lato Nord 2a","comune":"Bentivoglio","cap":"40010","longitudine":"11.384396","latitudine":"44.5934","servizi_mobile_payment":true,"fatturazione_elettronica":true},{"id":399,"codice_nazione":"IT","indirizzo":"Via Europa 40","comune":"Pove Del Grappa","cap":"36020","longitudine":"11.719219","latitudine":"45.802887","servizi_mobile_payment":true,"fatturazione_elettronica":true},{"id":400,"codice_nazione":"IT","indirizzo":"Ss 18 Km 113+500","comune":"Torchiara","cap":"84076","longitudine":"15.0609","latitudine":"40.32036","servizi_mobile_payment":true,"fatturazione_elettronica":true},{"id":401,"codice_nazione":"IT","indirizzo":"Carlo Felice","comune":"Sassari","cap":"07100","longitudine":"8.5742","latitudine":"40.71781","servizi_mobile_payment":true,"fatturazione_elettronica":true},{"id":402,"codice_nazione":"IT","indirizzo":"Strada Provinciale","comune":"San Pietro A Maida","cap":"88020","longitudine":"16.339016","latitudine":"38.846085","servizi_mobile_payment":true,"fatturazione_elettronica":true},{"id":403,"codice_nazione":"IT","indirizzo":"S.s. 637 Km. 18+398","comune":"Castro Dei Volsci","cap":"03020","longitudine":"13.393281","latitudine":"41.508217","servizi_mobile_payment":true,"fatturazione_elettronica":true},{"id":404,"codice_nazione":"IT","indirizzo":"Fiorentina","comune":"Arezzo","cap":"52100","longitudine":"11.8654995","latitudine":"43.470604","servizi_mobile_payment":true,"fatturazione_elettronica":true},{"id":405,"codice_nazione":"IT","indirizzo":"Spalto Gamondio  1\/b","comune":"Alessandria","cap":"15100","longitudine":"8.618447","latitudine":"44.90747","servizi_mobile_payment":true,"fatturazione_elettronica":true},{"id":406,"codice_nazione":"IT","indirizzo":"S.s.156 Montilepini Km 40+700","comune":"Sezze","cap":"04018","longitudine":"13.034345","latitudine":"41.487186","servizi_mobile_payment":true,"fatturazione_elettronica":true},{"id":408,"codice_nazione":"IT","indirizzo":"Ss 106 Km 416+750","comune":"Nova Siri","cap":"75020","longitudine":"16.63205","latitudine":"40.13615","servizi_mobile_payment":true,"fatturazione_elettronica":true},{"id":409,"codice_nazione":"IT","indirizzo":"Via Chiesa Rossa 157","comune":"Milano","cap":"20142","longitudine":"9.16759","latitudine":"45.42226","servizi_mobile_payment":false,"fatturazione_elettronica":false},{"id":410,"codice_nazione":"IT","indirizzo":"Aut. A1 Km 42","comune":"Somaglia","cap":"26867","longitudine":"9.633981","latitudine":"45.14181","servizi_mobile_payment":true,"fatturazione_elettronica":true},{"id":411,"codice_nazione":"IT","indirizzo":"Via Rubino","comune":"Vallo Della Lucania","cap":"84078","longitudine":"15.26267","latitudine":"40.22827","servizi_mobile_payment":true,"fatturazione_elettronica":true},{"id":412,"codice_nazione":"IT","indirizzo":"Via Bassanese, 58","comune":"Montebelluna","cap":"31044","longitudine":"12.019577","latitudine":"45.780144","servizi_mobile_payment":true,"fatturazione_elettronica":true},{"id":413,"codice_nazione":"IT","indirizzo":"Via Giovanni  Verga Sn","comune":"Paterno","cap":"95047","longitudine":"14.8984165","latitudine":"37.560795","servizi_mobile_payment":true,"fatturazione_elettronica":true},{"id":414,"codice_nazione":"IT","indirizzo":"Via Bregolini 80, S.s.noalese","comune":"Noale","cap":"30033","longitudine":"12.070036","latitudine":"45.544205","servizi_mobile_payment":true,"fatturazione_elettronica":true},{"id":415,"codice_nazione":"IT","indirizzo":"Via Cesare Battisti","comune":"Jesolo","cap":"30016","longitudine":"12.6465225","latitudine":"45.536465","servizi_mobile_payment":true,"fatturazione_elettronica":true},{"id":416,"codice_nazione":"IT","indirizzo":"S.s. 131km.25,315","comune":"Nuraminis","cap":"09024","longitudine":"9.018942","latitudine":"39.4284","servizi_mobile_payment":true,"fatturazione_elettronica":true},{"id":417,"codice_nazione":"IT","indirizzo":"Ss 131 Km 62+892","comune":"Mogoro","cap":"09050","longitudine":"8.7314","latitudine":"39.66832","servizi_mobile_payment":true,"fatturazione_elettronica":true},{"id":418,"codice_nazione":"IT","indirizzo":"Spiaggia Delle Forch","comune":"Crotone","cap":"88074","longitudine":"17.12258","latitudine":"39.08489","servizi_mobile_payment":true,"fatturazione_elettronica":true},{"id":419,"codice_nazione":"IT","indirizzo":"C.da Vedatiglia Km.7+890","comune":"Vico Del Gargano","cap":"71018","longitudine":"15.964296","latitudine":"41.90253","servizi_mobile_payment":true,"fatturazione_elettronica":true},{"id":420,"codice_nazione":"IT","indirizzo":"Ss 121","comune":"Santa Caterina Villarmosa","cap":"93018","longitudine":"14.040839","latitudine":"37.590317","servizi_mobile_payment":true,"fatturazione_elettronica":true},{"id":421,"codice_nazione":"IT","indirizzo":"Fraz Macchia Via Principe Di Piemon","comune":"Giarre","cap":"95010","longitudine":"15.172179","latitudine":"37.718082","servizi_mobile_payment":true,"fatturazione_elettronica":true},{"id":422,"codice_nazione":"IT","indirizzo":"Lungomare De Pompeis","comune":"Sant\u0027antioco","cap":"09017","longitudine":"8.4603","latitudine":"39.06355","servizi_mobile_payment":true,"fatturazione_elettronica":true},{"id":424,"codice_nazione":"IT","indirizzo":"Crispi","comune":"Varese","cap":"21100","longitudine":"8.817293","latitudine":"45.82338","servizi_mobile_payment":true,"fatturazione_elettronica":true},{"id":425,"codice_nazione":"IT","indirizzo":"Berti Pichat 0020","comune":"Bologna","cap":"40127","longitudine":"11.355621","latitudine":"44.50114","servizi_mobile_payment":true,"fatturazione_elettronica":true},{"id":427,"codice_nazione":"IT","indirizzo":"S S 17 Km 207+400","comune":"Bojano","cap":"86012","longitudine":"14.480306","latitudine":"41.484303","servizi_mobile_payment":true,"fatturazione_elettronica":true},{"id":428,"codice_nazione":"IT","indirizzo":"S.p. 32 Loc. Pilastro","comune":"Langhirano","cap":"43010","longitudine":"10.2899","latitudine":"44.68436","servizi_mobile_payment":true,"fatturazione_elettronica":true},{"id":429,"codice_nazione":"IT","indirizzo":"Xxiv Maggio N.1","comune":"Novafeltria","cap":"61015","longitudine":"12.28911","latitudine":"43.89741","servizi_mobile_payment":false,"fatturazione_elettronica":false},{"id":430,"codice_nazione":"IT","indirizzo":"Cs Xxiii Marzo Bicocca 364","comune":"Novara","cap":"28100","longitudine":"8.6439","latitudine":"45.42498","servizi_mobile_payment":true,"fatturazione_elettronica":true},{"id":431,"codice_nazione":"IT","indirizzo":"Loc.s. Polo Variante Str.pr. Asolana Km 11+083 1","comune":"Torrile","cap":"43030","longitudine":"10.34989","latitudine":"44.89513","servizi_mobile_payment":true,"fatturazione_elettronica":true},{"id":432,"codice_nazione":"IT","indirizzo":"Ss 485 Km8+126 Staz.di Montecosaro","comune":"Montecosaro","cap":"62010","longitudine":"13.6300335","latitudine":"43.281727","servizi_mobile_payment":false,"fatturazione_elettronica":true},{"id":433,"codice_nazione":"IT","indirizzo":"Via Figuli Terme","comune":"Sciacca","cap":"92019","longitudine":"13.089992","latitudine":"37.506496","servizi_mobile_payment":true,"fatturazione_elettronica":true},{"id":434,"codice_nazione":"IT","indirizzo":"Via G. Leopardi","comune":"Volla","cap":"80040","longitudine":"14.339384","latitudine":"40.88034","servizi_mobile_payment":true,"fatturazione_elettronica":true},{"id":435,"codice_nazione":"IT","indirizzo":"Via Ferrovia Dello Stato Snc","comune":"Ottaviano","cap":"80044","longitudine":"14.490246","latitudine":"40.8525","servizi_mobile_payment":false,"fatturazione_elettronica":false},{"id":436,"codice_nazione":"IT","indirizzo":"Casilina 930","comune":"Roma","cap":"00172","longitudine":"12.5715065","latitudine":"41.87326","servizi_mobile_payment":true,"fatturazione_elettronica":true},{"id":437,"codice_nazione":"IT","indirizzo":"Cso Giulio Cesare 0318","comune":"Torino","cap":"10154","longitudine":"7.703618","latitudine":"45.106716","servizi_mobile_payment":true,"fatturazione_elettronica":true},{"id":438,"codice_nazione":"IT","indirizzo":"Via Tiburtina Km 21+400","comune":"Guidonia Montecelio","cap":"00012","longitudine":"12.708737","latitudine":"41.954517","servizi_mobile_payment":true,"fatturazione_elettronica":true},{"id":439,"codice_nazione":"IT","indirizzo":"Via Roma","comune":"Torri Di Quartesolo","cap":"36040","longitudine":"11.618642","latitudine":"45.518753","servizi_mobile_payment":true,"fatturazione_elettronica":true},{"id":440,"codice_nazione":"IT","indirizzo":"Roma 27 27","comune":"Forli\u0027","cap":"47100","longitudine":"12.0545","latitudine":"44.2165","servizi_mobile_payment":true,"fatturazione_elettronica":true},{"id":441,"codice_nazione":"IT","indirizzo":"Corso Grosseto 0119","comune":"Torino","cap":"10147","longitudine":"7.67952","latitudine":"45.10422","servizi_mobile_payment":true,"fatturazione_elettronica":true},{"id":442,"codice_nazione":"IT","indirizzo":"P.zza Zaera","comune":"Messina","cap":"98100","longitudine":"15.54815","latitudine":"38.18128","servizi_mobile_payment":true,"fatturazione_elettronica":true},{"id":443,"codice_nazione":"IT","indirizzo":"Cagliari","comune":"Sarroch","cap":"09018","longitudine":"9.010601","latitudine":"39.06718","servizi_mobile_payment":false,"fatturazione_elettronica":false},{"id":444,"codice_nazione":"IT","indirizzo":"Via Camposportivo","comune":"Ribera","cap":"92016","longitudine":"13.270001","latitudine":"37.49684","servizi_mobile_payment":true,"fatturazione_elettronica":true},{"id":445,"codice_nazione":"IT","indirizzo":"Str. Prov Per Torino","comune":"Castellamonte","cap":"10081","longitudine":"7.7139463","latitudine":"45.37388","servizi_mobile_payment":true,"fatturazione_elettronica":true},{"id":446,"codice_nazione":"IT","indirizzo":"Str.prov.nepesina Km 16","comune":"Civita Castellana","cap":"01033","longitudine":"12.413972","latitudine":"42.295574","servizi_mobile_payment":true,"fatturazione_elettronica":true},{"id":447,"codice_nazione":"IT","indirizzo":"Loc.felegara Via Repubblica N. 73","comune":"Medesano","cap":"43040","longitudine":"10.11661","latitudine":"44.72818","servizi_mobile_payment":true,"fatturazione_elettronica":true},{"id":448,"codice_nazione":"IT","indirizzo":"S.s. Tiberina 3 Bis, Km.173","comune":"Pieve Santo Stefano","cap":"52036","longitudine":"12.03976","latitudine":"43.6728","servizi_mobile_payment":true,"fatturazione_elettronica":false},{"id":449,"codice_nazione":"IT","indirizzo":"Via Postumia Ovest 65 65","comune":"San Biagio Di Callalta","cap":"31048","longitudine":"12.3498","latitudine":"45.6807","servizi_mobile_payment":true,"fatturazione_elettronica":true},{"id":451,"codice_nazione":"IT","indirizzo":"Via Tito Livio 19","comune":"Milano","cap":"20123","longitudine":"9.217927","latitudine":"45.451405","servizi_mobile_payment":true,"fatturazione_elettronica":true},{"id":452,"codice_nazione":"IT","indirizzo":"Via Per Fagnano","comune":"Busto Arsizio","cap":"21052","longitudine":"8.857803","latitudine":"45.62648","servizi_mobile_payment":true,"fatturazione_elettronica":true},{"id":455,"codice_nazione":"IT","indirizzo":"Ss 236 Km 25+547","comune":"Guidizzolo","cap":"46040","longitudine":"10.56355","latitudine":"45.327705","servizi_mobile_payment":true,"fatturazione_elettronica":true},{"id":456,"codice_nazione":"IT","indirizzo":"S.p. 101 Km. 3+500","comune":"Lainate","cap":"20020","longitudine":"9.014879","latitudine":"45.562653","servizi_mobile_payment":true,"fatturazione_elettronica":true},{"id":457,"codice_nazione":"IT","indirizzo":"Via Marina Del Mondo","comune":"Monopoli","cap":"70043","longitudine":"17.28984","latitudine":"40.96001","servizi_mobile_payment":true,"fatturazione_elettronica":true},{"id":458,"codice_nazione":"IT","indirizzo":"S.s. 486 Di Montefiorino - Loc. Tressano -","comune":"Castellarano","cap":"42014","longitudine":"10.7490225","latitudine":"44.52666","servizi_mobile_payment":true,"fatturazione_elettronica":true},{"id":459,"codice_nazione":"IT","indirizzo":"Loc. Correzzo","comune":"Gazzo Veronese","cap":"37060","longitudine":"11.11111","latitudine":"45.14608","servizi_mobile_payment":true,"fatturazione_elettronica":true},{"id":460,"codice_nazione":"IT","indirizzo":"Str Pro Bra Carmagno","comune":"Bra","cap":"12042","longitudine":"7.8391986","latitudine":"44.7099","servizi_mobile_payment":true,"fatturazione_elettronica":true},{"id":461,"codice_nazione":"IT","indirizzo":"Via Galileo Galilei 80","comune":"Marina Di Carrara","cap":"54036","longitudine":"10.03566","latitudine":"44.04926","servizi_mobile_payment":true,"fatturazione_elettronica":true},{"id":462,"codice_nazione":"IT","indirizzo":"Colombo 125","comune":"Verona","cap":"37138","longitudine":"10.97797","latitudine":"45.448555","servizi_mobile_payment":true,"fatturazione_elettronica":true},{"id":463,"codice_nazione":"IT","indirizzo":"Ss.71.km.102+187","comune":"Castiglione Del Lago","cap":"06061","longitudine":"12.046079","latitudine":"43.125103","servizi_mobile_payment":true,"fatturazione_elettronica":true},{"id":464,"codice_nazione":"IT","indirizzo":"Strada Vecchia Loc. Pinocchio","comune":"Ancona","cap":"60127","longitudine":"13.49956","latitudine":"43.58296","servizi_mobile_payment":true,"fatturazione_elettronica":false},{"id":465,"codice_nazione":"IT","indirizzo":"Loc Giordanello Ss 107","comune":"Spezzano Della Sila","cap":"87052","longitudine":"16.46658","latitudine":"39.33443","servizi_mobile_payment":true,"fatturazione_elettronica":true},{"id":466,"codice_nazione":"IT","indirizzo":"Str-stat-per Rovigo","comune":"Legnago","cap":"37045","longitudine":"11.313933","latitudine":"45.184246","servizi_mobile_payment":true,"fatturazione_elettronica":true},{"id":467,"codice_nazione":"IT","indirizzo":"Ss 36 Lecco\/colico Ovest Km. 60,493","comune":"Mandello Del Lario","cap":"23826","longitudine":"9.327638","latitudine":"45.913994","servizi_mobile_payment":true,"fatturazione_elettronica":true},{"id":468,"codice_nazione":"IT","indirizzo":"Loc. Bagni","comune":"Lignano","cap":"33054","longitudine":"13.139649","latitudine":"45.6903","servizi_mobile_payment":true,"fatturazione_elettronica":true},{"id":469,"codice_nazione":"IT","indirizzo":"Pontina Km 24","comune":"Roma","cap":"00152","longitudine":"12.455628","latitudine":"41.711224","servizi_mobile_payment":true,"fatturazione_elettronica":true},{"id":470,"codice_nazione":"IT","indirizzo":"Strada Statale N 10","comune":"Stradella","cap":"27049","longitudine":"9.301432","latitudine":"45.07881","servizi_mobile_payment":true,"fatturazione_elettronica":true},{"id":473,"codice_nazione":"IT","indirizzo":"Pascoli","comune":"Sassari","cap":"07100","longitudine":"8.560728","latitudine":"40.7361","servizi_mobile_payment":true,"fatturazione_elettronica":true},{"id":474,"codice_nazione":"IT","indirizzo":"Strada Prov.le 121","comune":"Cernusco Sul Naviglio","cap":"20069","longitudine":"9.338983","latitudine":"45.50416","servizi_mobile_payment":true,"fatturazione_elettronica":true},{"id":475,"codice_nazione":"IT","indirizzo":"S.s. 527 Km 25+980 47","comune":"Rescaldina","cap":"20027","longitudine":"8.959063","latitudine":"45.61237","servizi_mobile_payment":true,"fatturazione_elettronica":true},{"id":476,"codice_nazione":"IT","indirizzo":"Via Xx Settembre 45","comune":"Perugia","cap":"06100","longitudine":"12.383843","latitudine":"43.103634","servizi_mobile_payment":true,"fatturazione_elettronica":true},{"id":477,"codice_nazione":"IT","indirizzo":"Ss 1 Aurelia Sud Km. 107,200","comune":"Montalto Di Castro","cap":"01014","longitudine":"11.617901","latitudine":"42.340782","servizi_mobile_payment":true,"fatturazione_elettronica":true},{"id":478,"codice_nazione":"IT","indirizzo":"Pza S Gabriele Di Go","comune":"Torino","cap":"10134","longitudine":"7.6532283","latitudine":"45.03927","servizi_mobile_payment":true,"fatturazione_elettronica":true},{"id":480,"codice_nazione":"IT","indirizzo":"Ss 125 Km. 339+250","comune":"Arzachena","cap":"07020","longitudine":"9.420815","latitudine":"41.068535","servizi_mobile_payment":true,"fatturazione_elettronica":true},{"id":481,"codice_nazione":"IT","indirizzo":"Via Battaglione Val Leogra 98","comune":"Vicenza","cap":"36100","longitudine":"11.51916","latitudine":"45.54898","servizi_mobile_payment":true,"fatturazione_elettronica":true},{"id":482,"codice_nazione":"IT","indirizzo":"Corso Marconi","comune":"Gattinara","cap":"13045","longitudine":"8.365478","latitudine":"45.614315","servizi_mobile_payment":true,"fatturazione_elettronica":true},{"id":483,"codice_nazione":"IT","indirizzo":"Via Di San Cleto Papa","comune":"Roma","cap":"00167","longitudine":"12.422299","latitudine":"41.92276","servizi_mobile_payment":true,"fatturazione_elettronica":true},{"id":484,"codice_nazione":"IT","indirizzo":"Loc-mola Loc. Mola","comune":"Porto Azzurro","cap":"57036","longitudine":"10.37788","latitudine":"42.75925","servizi_mobile_payment":true,"fatturazione_elettronica":true},{"id":487,"codice_nazione":"IT","indirizzo":"Via Bologna.","comune":"Cento","cap":"44042","longitudine":"11.280456","latitudine":"44.721203","servizi_mobile_payment":true,"fatturazione_elettronica":true},{"id":488,"codice_nazione":"IT","indirizzo":"S.p. Ex S.s. 525 Km 19+695","comune":"Pozzo D\u0027adda","cap":"20069","longitudine":"9.4975395","latitudine":"45.564648","servizi_mobile_payment":true,"fatturazione_elettronica":true},{"id":489,"codice_nazione":"IT","indirizzo":"Via Della Magliana","comune":"Roma","cap":"00050","longitudine":"12.355366","latitudine":"41.818768","servizi_mobile_payment":true,"fatturazione_elettronica":true},{"id":490,"codice_nazione":"IT","indirizzo":"Ss12 Brennero Loc S.marco","comune":"Lucca","cap":"55100","longitudine":"10.513592","latitudine":"43.857857","servizi_mobile_payment":true,"fatturazione_elettronica":true},{"id":491,"codice_nazione":"IT","indirizzo":"Via Collatina Angolo Via Petitti","comune":"Roma","cap":"00155","longitudine":"12.609649","latitudine":"41.905228","servizi_mobile_payment":true,"fatturazione_elettronica":false},{"id":492,"codice_nazione":"IT","indirizzo":"Bologna 0281","comune":"Ferrara","cap":"44100","longitudine":"11.60489","latitudine":"44.820667","servizi_mobile_payment":true,"fatturazione_elettronica":true},{"id":493,"codice_nazione":"IT","indirizzo":"Via S.giorgio, 172","comune":"Bagolino","cap":"25072","longitudine":"10.467309","latitudine":"45.82055","servizi_mobile_payment":true,"fatturazione_elettronica":true},{"id":494,"codice_nazione":"IT","indirizzo":"Str. Statale 31 Km 22+335","comune":"Casale Monferrato","cap":"15033","longitudine":"8.460316","latitudine":"45.162697","servizi_mobile_payment":true,"fatturazione_elettronica":true},{"id":496,"codice_nazione":"IT","indirizzo":"Via Modena Per Sassuolo 1600","comune":"Modena","cap":"41011","longitudine":"10.853402","latitudine":"44.60675","servizi_mobile_payment":true,"fatturazione_elettronica":true},{"id":497,"codice_nazione":"IT","indirizzo":"S.s. 486, 2 Loc. Ponte Secchia","comune":"Baiso","cap":"42031","longitudine":"10.62688","latitudine":"44.4138","servizi_mobile_payment":true,"fatturazione_elettronica":true},{"id":498,"codice_nazione":"IT","indirizzo":"Viale Della Repubblica 120","comune":"Maniago","cap":"33085","longitudine":"12.68596","latitudine":"46.16071","servizi_mobile_payment":true,"fatturazione_elettronica":true},{"id":499,"codice_nazione":"IT","indirizzo":"Ferrari 38 38","comune":"Sant\u0027ilario D\u0027enza","cap":"42049","longitudine":"10.451716","latitudine":"44.75842","servizi_mobile_payment":true,"fatturazione_elettronica":true},{"id":500,"codice_nazione":"IT","indirizzo":"Via Prov.le Romana  Loc.chiesanuova Uzzanese 60","comune":"Chiesina Uzzanese","cap":"51013","longitudine":"10.7092","latitudine":"43.8507","servizi_mobile_payment":true,"fatturazione_elettronica":false},{"id":501,"codice_nazione":"IT","indirizzo":"Ss 155 Km 26*300","comune":"Fiuggi","cap":"03014","longitudine":"13.230816","latitudine":"41.784866","servizi_mobile_payment":true,"fatturazione_elettronica":true},{"id":502,"codice_nazione":"IT","indirizzo":"Ss 75bis Loc. Oliveto","comune":"Passignano Sul Trasimeno","cap":"06065","longitudine":"12.12675","latitudine":"43.1925","servizi_mobile_payment":true,"fatturazione_elettronica":true},{"id":503,"codice_nazione":"IT","indirizzo":"Frazione S. Maria","comune":"Camisano Vicentino","cap":"36043","longitudine":"11.689452","latitudine":"45.520744","servizi_mobile_payment":true,"fatturazione_elettronica":true},{"id":504,"codice_nazione":"IT","indirizzo":"Via Vallecamonica 12","comune":"Brescia","cap":"25136","longitudine":"10.178281","latitudine":"45.546776","servizi_mobile_payment":true,"fatturazione_elettronica":false},{"id":508,"codice_nazione":"IT","indirizzo":"Via Enaudi\/sonnino","comune":"Civitanova Marche","cap":"62012","longitudine":"13.706402","latitudine":"43.29247","servizi_mobile_payment":true,"fatturazione_elettronica":false},{"id":509,"codice_nazione":"IT","indirizzo":"S.s. 172 Km. 8,8","comune":"Fasano","cap":"72015","longitudine":"17.348988","latitudine":"40.82508","servizi_mobile_payment":true,"fatturazione_elettronica":true},{"id":510,"codice_nazione":"IT","indirizzo":"Sp 19 Km 8+117","comune":"San Colombano Al Lambro","cap":"20078","longitudine":"9.472998","latitudine":"45.186626","servizi_mobile_payment":true,"fatturazione_elettronica":true},{"id":512,"codice_nazione":"IT","indirizzo":"Allacc.corso Butera","comune":"Bagheria","cap":"90011","longitudine":"13.503467","latitudine":"38.088104","servizi_mobile_payment":false,"fatturazione_elettronica":false},{"id":513,"codice_nazione":"IT","indirizzo":"Vle Michelangelo 2015","comune":"Palermo","cap":"90142","longitudine":"13.30533","latitudine":"38.13182","servizi_mobile_payment":true,"fatturazione_elettronica":true},{"id":514,"codice_nazione":"IT","indirizzo":"Raccordo Aut. Arezzo A\/1 Battifolle","comune":"Arezzo","cap":"52100","longitudine":"11.78312","latitudine":"43.43981","servizi_mobile_payment":true,"fatturazione_elettronica":true},{"id":515,"codice_nazione":"IT","indirizzo":"Iv Novembre","comune":"Treviso","cap":"31100","longitudine":"12.258606","latitudine":"45.665493","servizi_mobile_payment":true,"fatturazione_elettronica":true},{"id":516,"codice_nazione":"IT","indirizzo":"Ss 476 Km 25+800","comune":"Cutrofiano","cap":"73020","longitudine":"18.20033","latitudine":"40.1316","servizi_mobile_payment":true,"fatturazione_elettronica":true},{"id":517,"codice_nazione":"IT","indirizzo":"Maraschin","comune":"Schio","cap":"36015","longitudine":"11.345087","latitudine":"45.714535","servizi_mobile_payment":true,"fatturazione_elettronica":true},{"id":518,"codice_nazione":"IT","indirizzo":"Ss 236 Goitese Km 53+977","comune":"Castenedolo","cap":"25014","longitudine":"10.287213","latitudine":"45.481037","servizi_mobile_payment":true,"fatturazione_elettronica":true},{"id":519,"codice_nazione":"IT","indirizzo":"Cavour","comune":"Prato","cap":"50047","longitudine":"11.08813","latitudine":"43.880062","servizi_mobile_payment":true,"fatturazione_elettronica":true},{"id":520,"codice_nazione":"IT","indirizzo":"Corso Vittoria Colonna 170","comune":"Marino","cap":"00047","longitudine":"12.673521","latitudine":"41.771717","servizi_mobile_payment":true,"fatturazione_elettronica":true},{"id":522,"codice_nazione":"IT","indirizzo":"Sp Melfi \/ofanto","comune":"Melfi","cap":"85025","longitudine":"15.628653","latitudine":"41.0075","servizi_mobile_payment":true,"fatturazione_elettronica":true},{"id":523,"codice_nazione":"IT","indirizzo":"Viale Della Pace","comune":"Vicenza","cap":"36100","longitudine":"11.577035","latitudine":"45.541084","servizi_mobile_payment":true,"fatturazione_elettronica":true},{"id":524,"codice_nazione":"IT","indirizzo":"Via Goffredo Mameli","comune":"Valfabbrica","cap":"06029","longitudine":"12.601425","latitudine":"43.160152","servizi_mobile_payment":true,"fatturazione_elettronica":true},{"id":525,"codice_nazione":"IT","indirizzo":"Corso Della Repubblica,362","comune":"Cisterna Di Latina","cap":"04012","longitudine":"12.83045","latitudine":"41.58668","servizi_mobile_payment":true,"fatturazione_elettronica":true},{"id":527,"codice_nazione":"IT","indirizzo":"Via Pistoiese 833 833","comune":"Prato","cap":"50047","longitudine":"11.03063","latitudine":"43.9014","servizi_mobile_payment":true,"fatturazione_elettronica":false},{"id":528,"codice_nazione":"IT","indirizzo":"Corso Roma N.140","comune":"Trecate","cap":"28069","longitudine":"8.749744","latitudine":"45.43574","servizi_mobile_payment":true,"fatturazione_elettronica":true},{"id":529,"codice_nazione":"IT","indirizzo":"Strada Provinc.le 31","comune":"Bregnano","cap":"22070","longitudine":"9.054773","latitudine":"45.685986","servizi_mobile_payment":true,"fatturazione_elettronica":true},{"id":530,"codice_nazione":"IT","indirizzo":"Viale Europa 13","comune":"Bussero","cap":"20060","longitudine":"9.3746","latitudine":"45.5308","servizi_mobile_payment":true,"fatturazione_elettronica":true},{"id":531,"codice_nazione":"IT","indirizzo":"Via Boniperti S.s. 32","comune":"Momo","cap":"28015","longitudine":"8.559033","latitudine":"45.56946","servizi_mobile_payment":false,"fatturazione_elettronica":false},{"id":532,"codice_nazione":"IT","indirizzo":"Torre Spaccata 103","comune":"Roma","cap":"00169","longitudine":"12.58568","latitudine":"41.85738","servizi_mobile_payment":false,"fatturazione_elettronica":false},{"id":533,"codice_nazione":"IT","indirizzo":"Via Sommavilla 109","comune":"Tombolo","cap":"35019","longitudine":"11.840454","latitudine":"45.652294","servizi_mobile_payment":true,"fatturazione_elettronica":true},{"id":534,"codice_nazione":"IT","indirizzo":"Varesina","comune":"Gallarate","cap":"21013","longitudine":"8.7971945","latitudine":"45.674213","servizi_mobile_payment":true,"fatturazione_elettronica":true},{"id":535,"codice_nazione":"IT","indirizzo":"Via Delle Farniole 27","comune":"Foiano Della Chiana","cap":"52045","longitudine":"11.80918","latitudine":"43.223785","servizi_mobile_payment":false,"fatturazione_elettronica":false},{"id":536,"codice_nazione":"IT","indirizzo":"Loc. Cardano 00","comune":"Cornedo All\u0027isarco","cap":"39053","longitudine":"11.403759","latitudine":"46.49325","servizi_mobile_payment":true,"fatturazione_elettronica":true},{"id":538,"codice_nazione":"IT","indirizzo":"Aereoporto Fiumicino 232","comune":"Fiumicino","cap":"00050","longitudine":"12.252523","latitudine":"41.78371","servizi_mobile_payment":true,"fatturazione_elettronica":true},{"id":542,"codice_nazione":"IT","indirizzo":"Ss 115 Via Vincenzella","comune":"Porto Empedocle","cap":"92014","longitudine":"13.541658","latitudine":"37.29479","servizi_mobile_payment":true,"fatturazione_elettronica":true},{"id":543,"codice_nazione":"IT","indirizzo":"Ss 115  Km 362 + 131   Sn","comune":"Rosolini","cap":"96019","longitudine":"14.9616165","latitudine":"36.8235","servizi_mobile_payment":true,"fatturazione_elettronica":true},{"id":544,"codice_nazione":"IT","indirizzo":"S.s. 668 - Via Ghedi","comune":"Montichiari","cap":"25018","longitudine":"10.338837","latitudine":"45.40432","servizi_mobile_payment":true,"fatturazione_elettronica":true},{"id":545,"codice_nazione":"IT","indirizzo":"Ss-16 Adriatica","comune":"Francavilla Al Mare","cap":"66023","longitudine":"14.2745","latitudine":"42.42697","servizi_mobile_payment":true,"fatturazione_elettronica":true},{"id":546,"codice_nazione":"IT","indirizzo":"Ostiense  333","comune":"Roma","cap":"00146","longitudine":"12.477623","latitudine":"41.855675","servizi_mobile_payment":true,"fatturazione_elettronica":true},{"id":547,"codice_nazione":"IT","indirizzo":"Via Della Giustiniana 11\/b","comune":"Roma","cap":"00188","longitudine":"12.49071","latitudine":"42.00166","servizi_mobile_payment":true,"fatturazione_elettronica":true},{"id":548,"codice_nazione":"IT","indirizzo":"Tiburtina S.s.5","comune":"Pescara","cap":"65100","longitudine":"14.196096","latitudine":"42.43977","servizi_mobile_payment":true,"fatturazione_elettronica":true},{"id":549,"codice_nazione":"IT","indirizzo":"Via Marconi 125","comune":"Ranica","cap":"24020","longitudine":"9.7184925","latitudine":"45.724133","servizi_mobile_payment":true,"fatturazione_elettronica":true},{"id":551,"codice_nazione":"IT","indirizzo":"Ss 4 Km 97+300","comune":"Cittaducale","cap":"02015","longitudine":"12.970664","latitudine":"42.378357","servizi_mobile_payment":true,"fatturazione_elettronica":true},{"id":552,"codice_nazione":"IT","indirizzo":"Giardinelli Ss 115","comune":"Gela","cap":"93012","longitudine":"14.259737","latitudine":"37.068504","servizi_mobile_payment":true,"fatturazione_elettronica":true},{"id":554,"codice_nazione":"IT","indirizzo":"Via Rivana","comune":"Nago-torbole","cap":"38060","longitudine":"10.89565","latitudine":"45.87793","servizi_mobile_payment":true,"fatturazione_elettronica":true},